"Country","State","City","Population","Lat","Lon"
"Germany","Berlin","Berlin",3520031,52.52,13.38
"Germany","Hamburg","Hamburg",1787408,53.55,10.
"Germany","Bavaria","Munich",1500560,48.14,11.58
"Germany","NorthRhineWestphalia","Cologne",1081701,50.95,6.97
"Germany","Hesse","Frankfurt",736414,50.120000000000005,8.68
"Germany","BadenWurttemberg","Stuttgart",623738,48.79,9.19
"Germany","NorthRhineWestphalia","Dusseldorf",639407,51.24,6.79
"Germany","NorthRhineWestphalia","Essen",590194,51.47,7.
"Germany","NorthRhineWestphalia","Dortmund",585813,51.51,7.48
"Germany","Bremen","Bremen",565719,53.08,8.81
"Germany","Saxony","Dresden",523058,51.050000000000004,13.74
"Germany","LowerSaxony","Hanover",532864,52.4,9.73
"Germany","Saxony","Leipzig",506578,51.35,12.4
"Germany","Bavaria","Nuremberg",511628,49.45,11.05
"Germany","NorthRhineWestphalia","Duisburg",499845,51.43,6.75
"Germany","NorthRhineWestphalia","Bochum",364920,51.480000000000004,7.2
"Germany","NorthRhineWestphalia","Wuppertal",352390,51.26,7.18
"Germany","NorthRhineWestphalia","Bielefeld",337219,52.03,8.53
"Germany","NorthRhineWestphalia","Bonn",322960,50.730000000000004,7.1000000000000005
"Germany","BadenWurttemberg","Mannheim",313174,49.5,8.47
"Germany","BadenWurttemberg","Karlsruhe",307263,49.,8.4
"Germany","Hesse","Wiesbaden",275562,50.08,8.23
"Germany","NorthRhineWestphalia","Munster",272106,51.96,7.62
"Germany","NorthRhineWestphalia","Gelsenkirchen",266772,51.51,7.11
"Germany","Bavaria","Augsburg",262512,48.36,10.89
"Germany","NorthRhineWestphalia","Monchengladbach",260951,51.2,6.42
"Germany","NorthRhineWestphalia","Aachen",254782,50.77,6.09
"Germany","Saxony","Chemnitz",245700,50.83,12.92
"Germany","LowerSaxony","Brunswick",245467,52.27,10.51
"Germany","NorthRhineWestphalia","Krefeld",226812,51.33,6.55
"Germany","SaxonyAnhalt","Halle",235720,51.480000000000004,11.96
"Germany","SchleswigHolstein","Kiel",235366,54.32,10.120000000000001
"Germany","SaxonyAnhalt","Magdeburg",229826,52.13,11.620000000000001
"Germany","NorthRhineWestphalia","Oberhausen",218181,51.47,6.86
"Germany","BadenWurttemberg","Freiburg",217547,47.99,7.8500000000000005
"Germany","SchleswigHolstein","Lubeck",211213,53.870000000000005,10.66
"Germany","Thuringia","Erfurt",211113,50.99,11.03
"Germany","MecklenburgWesternPomerania","Rostock",206011,54.09,12.1
"Germany","RheinlandPalatinate","Mainz",196425,50.,8.26
"Germany","NorthRhineWestphalia","Hagen",195671,51.370000000000005,7.46
"Germany","Hesse","Kassel",193518,51.32,9.48
"Germany","NorthRhineWestphalia","Hamm",183672,51.67,7.8
"Germany","Saarland","Saarbrucken",178141,49.25,6.97
"Germany","NorthRhineWestphalia","Herne",156774,51.54,7.21
"Germany","NorthRhineWestphalia","Mulheim",169414,51.43,6.86
"Germany","RheinlandPalatinate","Ludwigshafen",166621,49.480000000000004,8.44
"Germany","LowerSaxony","Osnabruck",163020,52.28,8.05
"Germany","NorthRhineWestphalia","Solingen",158908,51.18,7.0600000000000005
"Germany","NorthRhineWestphalia","Leverkusen",161336,51.04,6.99
"Germany","LowerSaxony","Oldenburg",159060,53.15,8.21
"Germany","Brandenburg","Potsdam",171810,52.4,13.07
"Germany","NorthRhineWestphalia","Neuss",152882,51.2,6.69
"Germany","BadenWurttemberg","Heidelberg",144634,49.42,8.69
"Germany","NorthRhineWestphalia","Paderborn",148677,51.72,8.74
"Germany","Hesse","Darmstadt",159982,49.870000000000005,8.64
"Germany","Bavaria","Ratisbon",135520,49.02,12.11
"Germany","Bavaria","Wurzburg",134913,49.800000000000004,9.94
"Germany","Bavaria","Ingolstadt",122167,48.77,11.43
"Germany","LowerSaxony","Gottingen",134212,51.53,9.92
"Germany","NorthRhineWestphalia","Recklinghausen",121521,51.61,7.19
"Germany","BadenWurttemberg","Heilbronn",122567,49.14,9.22
"Germany","BadenWurttemberg","Ulm",122636,48.4,9.97
"Germany","LowerSaxony","Wolfsburg",123909,52.43,10.78
"Germany","BadenWurttemberg","Pforzheim",119156,48.89,8.69
"Germany","NorthRhineWestphalia","Bottrop",117409,51.53,6.93
"Germany","Hesse","Offenbach",117564,50.1,8.77
"Germany","Bremen","Bremerhaven",113034,53.550000000000004,8.58
"Germany","NorthRhineWestphalia","Remscheid",114925,51.18,7.19
"Germany","Bavaria","Furth",113627,49.480000000000004,10.98
"Germany","BadenWurttemberg","Reutlingen",114427,48.49,9.21
"Germany","NorthRhineWestphalia","Moers",107816,51.45,6.65
"Germany","LowerSaxony","Salzgitter",103668,52.17,10.33
"Germany","RheinlandPalatinate","Koblenz",105888,50.35,7.6000000000000005
"Germany","NorthRhineWestphalia","Siegen",102355,50.870000000000005,8.01
"Germany","NorthRhineWestphalia","BergischGladbach",113085,50.980000000000004,7.15
"Germany","Brandenburg","Cottbus",100534,51.77,14.33
"Germany","Bavaria","Erlangen",103753,49.6,11.01
"Germany","RheinlandPalatinate","Trier",103274,49.75,6.63
"Germany","LowerSaxony","Hildesheim",103249,52.160000000000004,9.950000000000001
"Germany","Thuringia","Gera",96011,50.88,12.08
"Germany","Thuringia","Jena",108207,50.93,11.58
"Germany","NorthRhineWestphalia","Witten",100248,51.44,7.34
"Germany","RheinlandPalatinate","Kaiserslautern",98044,49.45,7.75
"Germany","Saxony","Zwickau",96786,50.72,12.5
"Germany","NorthRhineWestphalia","Iserlohn",96546,51.39,7.68
"Germany","NorthRhineWestphalia","Gutersloh",96284,51.910000000000004,8.370000000000001
"Germany","MecklenburgWesternPomerania","Schwerin",91583,53.63,11.4
"Germany","NorthRhineWestphalia","Duren",92614,50.81,6.49
"Germany","NorthRhineWestphalia","Ratingen",87943,51.300000000000004,6.8500000000000005
"Germany","BadenWurttemberg","Esslingen",90378,48.74,9.32
"Germany","NorthRhineWestphalia","Marl",84055,51.68,7.12
"Germany","NorthRhineWestphalia","Lunen",85867,51.620000000000005,7.5200000000000005
"Germany","Hesse","Hanau",88472,50.14,8.91
"Germany","BadenWurttemberg","Ludwigsburg",91116,48.9,9.19
"Germany","NorthRhineWestphalia","Velbert",84579,51.35,7.04
"Germany","SchleswigHolstein","Flensburg",86630,54.79,9.42
"Germany","BadenWurttemberg","Tubingen",83740,48.53,9.06
"Germany","NorthRhineWestphalia","Minden",81598,52.29,8.9
"Germany","LowerSaxony","Wilhelmshaven",76201,53.54,8.11
"Germany","RheinlandPalatinate","Worms",82212,49.64,8.35
"Germany","BadenWurttemberg","VillingenSchwenningen",81916,48.07,8.45
"Germany","BadenWurttemberg","Konstanz",81692,47.68,9.17
"Germany","Hesse","Marburg",73836,50.800000000000004,8.77
"Germany","NorthRhineWestphalia","Dorsten",75431,51.67,6.97
"Germany","NorthRhineWestphalia","Ludenscheid",78032,51.230000000000004,7.6000000000000005
"Germany","SchleswigHolstein","Neumunster",79680,54.07,9.98
"Germany","SaxonyAnhalt","Dessau",77394,51.83,12.22
"Germany","NorthRhineWestphalia","CastropRauxel",74220,51.550000000000004,7.3100000000000005
"Germany","NorthRhineWestphalia","Rheine",74852,52.29,7.44
"Germany","NorthRhineWestphalia","Gladbeck",76373,51.58,6.98
"Germany","NorthRhineWestphalia","Viersen",75975,51.26,6.4
"Germany","NorthRhineWestphalia","Arnsberg",75867,51.410000000000004,8.06
"Germany","LowerSaxony","Delmenhorst",77045,53.06,8.64
"Germany","NorthRhineWestphalia","Troisdorf",74790,50.82,7.16
"Germany","Hesse","Giessen",84455,50.58,8.68
"Germany","NorthRhineWestphalia","Detmold",74817,51.95,8.88
"Germany","NorthRhineWestphalia","Bocholt",71443,51.84,6.61
"Germany","Bavaria","Bayreuth",73503,49.95,11.58
"Germany","Brandenburg","Brandenburg",71664,52.42,12.530000000000001
"Germany","LowerSaxony","Luneburg",74494,53.25,10.4
"Germany","SchleswigHolstein","Norderstedt",76712,53.660000000000004,10.02
"Germany","LowerSaxony","Celle",69561,52.620000000000005,10.06
"Germany","NorthRhineWestphalia","Dinslaken",70233,51.58,6.73
"Germany","Bavaria","Bamberg",69574,49.9,10.9
"Germany","Bavaria","Aschaffenburg",68664,49.99,9.15
"Germany","Saxony","Plauen",68430,50.5,12.14
"Germany","NorthRhineWestphalia","Unna",67680,51.54,7.68
"Germany","MecklenburgWesternPomerania","Neubrandenburg",63794,53.57,13.27
"Germany","NorthRhineWestphalia","Lippstadt",67233,51.67,8.34
"Germany","BadenWurttemberg","Aalen",67344,48.85,10.09
"Germany","RheinlandPalatinate","Neuwied",65750,50.43,7.46
"Germany","NorthRhineWestphalia","Herford",65060,52.120000000000005,8.67
"Germany","Thuringia","Weimar",64131,50.99,11.32
"Germany","NorthRhineWestphalia","Kerpen",64425,50.88,6.69
"Germany","NorthRhineWestphalia","Grevenbroich",64388,51.1,6.57
"Germany","NorthRhineWestphalia","Herten",64344,51.59,7.21
"Germany","Hesse","Fulda",65540,50.550000000000004,9.69
"Germany","NorthRhineWestphalia","Dormagen",62498,51.08,6.84
"Germany","LowerSaxony","Garbsen",60853,52.42,9.59
"Germany","NorthRhineWestphalia","Bergheim",62897,50.96,6.640000000000001
"Germany","Brandenburg","Frankfurt",58018,52.34,14.530000000000001
"Germany","Bavaria","Landshut",61923,48.54,12.14
"Germany","Bavaria","Kempten",65624,47.730000000000004,10.3
"Germany","NorthRhineWestphalia","Wesel",60088,51.67,6.62
"Germany","BadenWurttemberg","SchwabischGmund",59840,48.81,9.790000000000001
"Germany","BadenWurttemberg","Sindelfingen",62215,48.71,9.01
"Germany","Bavaria","Rosenheim",60394,47.86,12.15
"Germany","Hesse","Russelsheim",59203,50.,8.41
"Germany","NorthRhineWestphalia","Langenfeld",56993,51.11,6.95
"Germany","BadenWurttemberg","Offenburg",57687,48.480000000000004,7.95
"Germany","NorthRhineWestphalia","Stolberg",58540,50.79,6.23
"Germany","LowerSaxony","Hameln",56747,52.11,9.35
"Germany","MecklenburgWesternPomerania","Stralsund",58041,54.32,13.09
"Germany","BadenWurttemberg","Friedrichshafen",59108,47.660000000000004,9.48
"Germany","BadenWurttemberg","Goppingen",57627,48.71,9.66
"Germany","NorthRhineWestphalia","Menden",57599,51.44,7.79
"Germany","Saxony","Gorlitz",57111,51.160000000000004,14.98
"Germany","NorthRhineWestphalia","Hattingen",55510,51.410000000000004,7.18
"Germany","NorthRhineWestphalia","Hilden",56326,51.18,6.93
"Germany","NorthRhineWestphalia","SanktAugustin",56216,50.78,7.18
"Germany","NorthRhineWestphalia","Eschweiler",55646,50.83,6.2700000000000005
"Germany","NorthRhineWestphalia","Hurth",59496,50.89,6.890000000000001
"Germany","NorthRhineWestphalia","Euskirchen",56769,50.660000000000004,6.79
"Germany","BadenWurttemberg","BadenBaden",54307,48.76,8.23
"Germany","NorthRhineWestphalia","Ahlen",55280,51.77,7.88
"Germany","NorthRhineWestphalia","BadSalzuflen",53746,52.09,8.75
"Germany","NorthRhineWestphalia","Meerbusch",54180,51.24,6.73
"Germany","LowerSaxony","Wolfenbuttel",52446,52.17,10.55
"Germany","Bavaria","Schweinfurt",53970,50.06,10.22
"Germany","RheinlandPalatinate","Neustadt",53658,49.36,8.13
"Germany","NorthRhineWestphalia","Pulheim",53645,51.,6.8
"Germany","MecklenburgWesternPomerania","Greifswald",56685,54.09,13.39
"Germany","LowerSaxony","Nordhorn",53286,52.44,7.0600000000000005
"Germany","BadenWurttemberg","Waiblingen",53407,48.83,9.31
"Germany","NorthRhineWestphalia","Gummersbach",52636,51.04,7.57
"Germany","Hesse","Wetzlar",51649,50.56,8.5
"Germany","NorthRhineWestphalia","Bergkamen",47803,51.620000000000005,7.63
"Germany","NorthRhineWestphalia","Willich",51995,51.27,6.55
"Germany","Hesse","BadHomburg",52752,50.230000000000004,8.620000000000001
"Germany","LowerSaxony","Cuxhaven",48551,53.870000000000005,8.69
"Germany","LowerSaxony","Emden",50486,53.370000000000005,7.21
"Germany","Bavaria","NeuUlm",51700,48.4,10.01
"Germany","LowerSaxony","Lingen",51417,52.54,7.3100000000000005
"Germany","LowerSaxony","Langenhagen",51388,52.45,9.74
"Germany","NorthRhineWestphalia","Ibbenburen",51190,52.29,7.71
"Germany","NorthRhineWestphalia","Erftstadt",51082,50.81,6.76
"Germany","RheinlandPalatinate","Spires",50648,49.33,8.43
"Germany","Bavaria","Passau",50566,48.58,13.44
"Germany","LowerSaxony","Peine",49676,52.33,10.23
"Germany","NorthRhineWestphalia","Schwerte",49326,51.45,7.5600000000000005
"Germany","BadenWurttemberg","Heidenheim",48048,48.68,10.14
"Germany","NorthRhineWestphalia","BadOeynhausen",49194,52.21,8.81
"Germany","BadenWurttemberg","Ravensburg",49830,47.79,9.6
"Germany","NorthRhineWestphalia","Frechen",49164,50.910000000000004,6.8100000000000005
"Germany","NorthRhineWestphalia","Cleves",49124,51.79,6.12
"Germany","Saarland","Neunkirchen",45794,49.36,7.18
"Germany","NorthRhineWestphalia","Soest",48442,51.57,8.11
"Germany","NorthRhineWestphalia","Bornheim",48402,50.77,6.98
"Germany","SchleswigHolstein","Elmshorn",47667,53.75,9.65
"Germany","Bavaria","Hof",48191,50.32,11.9
"Germany","BadenWurttemberg","Rastatt",47650,48.86,8.2
"Germany","BadenWurttemberg","Lorrach",49303,47.63,7.66
"Germany","NorthRhineWestphalia","Dulmen",47432,51.84,7.3
"Germany","NorthRhineWestphalia","Erkrath",47205,51.22,6.890000000000001
"Germany","NorthRhineWestphalia","Herzogenrath",46398,50.870000000000005,6.09
"Germany","RheinlandPalatinate","Frankenthal",46938,49.550000000000004,8.35
"Germany","LowerSaxony","Melle",46651,52.2,8.35
"Germany","NorthRhineWestphalia","RhedaWiedenbruck",46625,51.85,8.28
"Germany","Thuringia","Gotha",45410,50.95,10.700000000000001
"Germany","NorthRhineWestphalia","Gronau",46488,52.2,7.03
"Germany","NorthRhineWestphalia","Alsdorf",46337,50.88,6.15
"Germany","BadenWurttemberg","Boblingen",47385,48.7,9.02
"Germany","SaxonyAnhalt","Wittenberg",46475,51.88,12.64
"Germany","BadenWurttemberg","Albstadt",44431,48.22,9.01
"Germany","LowerSaxony","Stade",47194,53.61,9.46
"Germany","NorthRhineWestphalia","Kamen",45816,51.6,7.66
"Germany","LowerSaxony","Neustadt",45657,52.51,9.46
"Germany","BadenWurttemberg","Leonberg",46143,48.800000000000004,9.02
"Germany","NorthRhineWestphalia","Hennef",45480,50.78,7.28
"Germany","BadenWurttemberg","Singen",46344,47.77,8.84
"Germany","MecklenburgWesternPomerania","Wismar",45182,53.9,11.46
"Germany","NorthRhineWestphalia","Bunde",44994,52.2,8.61
"Germany","NorthRhineWestphalia","Erkelenz",43350,51.08,6.32
"Germany","Bavaria","Straubing",44504,48.89,12.57
"Germany","NorthRhineWestphalia","Bruhl",44768,50.85,6.9
"Germany","Bavaria","Amberg",44394,49.45,11.85
"Germany","Bavaria","Freising",44105,48.410000000000004,11.73
"Germany","BadenWurttemberg","Fellbach",45147,48.82,9.27
"Germany","Saarland","Homburg",44043,49.33,7.33
"Germany","RheinlandPalatinate","BadKreuznach",48229,49.85,7.86
"Germany","BadenWurttemberg","Filderstadt",44721,48.67,9.23
"Germany","LowerSaxony","Lehrte",43720,52.38,9.97
"Germany","BadenWurttemberg","Lahr",44195,48.34,7.86
"Germany","Thuringia","Eisenach",42417,50.980000000000004,10.31
"Germany","NorthRhineWestphalia","Monheim",43587,51.09,6.88
"Germany","BadenWurttemberg","Weinheim",44797,49.56,8.66
"Germany","Thuringia","Nordhausen",43344,51.51,10.790000000000001
"Germany","Hesse","Rodgau",43325,50.03,8.870000000000001
"Germany","BadenWurttemberg","Bruchsal",44104,49.14,8.59
"Germany","RheinlandPalatinate","Landau",45362,49.2,8.11
"Germany","Saxony","Freiberg",42897,50.92,13.34
"Germany","BadenWurttemberg","Rottenburg",42240,48.49,8.93
"Germany","Hesse","Oberursel",42448,50.21,8.58
"Germany","LowerSaxony","Goslar",42792,51.92,10.43
"Germany","Bavaria","Weiden",42496,49.68,12.16
"Germany","RheinlandPalatinate","Pirmasens",42427,49.2,7.6000000000000005
"Germany","NorthRhineWestphalia","Nettetal",42412,51.32,6.28
"Germany","NorthRhineWestphalia","Kaarst",42269,51.24,6.61
"Germany","BadenWurttemberg","BietigheimBissingen",42968,48.96,9.13
"Germany","LowerSaxony","Gifhorn",42143,52.49,10.53
"Germany","SchleswigHolstein","Pinneberg",41972,53.660000000000004,9.8
"Germany","NorthRhineWestphalia","Lemgo",41958,52.04,8.91
"Germany","Bavaria","Kaufbeuren",41759,47.89,10.61
"Germany","Thuringia","Suhl",36208,50.61,10.68
"Germany","Brandenburg","Eberswalde",41980,52.84,13.8
"Germany","Saxony","Bautzen",41779,51.18,14.43
"Germany","LowerSaxony","Wunstorf",41478,52.43,9.43
"Germany","Bavaria","Coburg",41638,50.27,10.950000000000001
"Germany","LowerSaxony","Seevetal",41234,53.39,10.03
"Germany","NorthRhineWestphalia","Heinsberg",41458,51.07,6.09
"Germany","NorthRhineWestphalia","Lohne",41311,52.2,8.72
"Germany","Brandenburg","Oranienburg",41267,52.75,13.23
"Germany","NorthRhineWestphalia","Konigswinter",41216,50.71,7.18
"Germany","Bavaria","Memmingen",41111,47.99,10.18
"Germany","NorthRhineWestphalia","Borken",41088,51.85,6.87
"Germany","Hesse","Dreieich",40601,50.03,8.700000000000001
"Germany","LowerSaxony","Aurich",40651,53.49,7.48
"Germany","BadenWurttemberg","Nurtingen",39960,48.63,9.34
"Germany","Bavaria","Dachau",45985,48.26,11.43
"Germany","Saarland","Volklingen",39574,49.26,6.86
"Germany","Bavaria","Ansbach",40412,49.300000000000004,10.57
"Germany","LowerSaxony","Laatzen",41389,52.32,9.790000000000001
"Germany","BadenWurttemberg","Kirchheim",39396,48.65,9.44
"Germany","NorthRhineWestphalia","Mettmann",38291,51.25,6.96
"Germany","Saxony","Pirna",38010,50.96,13.93
"Germany","NorthRhineWestphalia","Huckelhoven",39731,51.06,6.22
"Germany","Hesse","Bensheim",39521,49.68,8.620000000000001
"Germany","NorthRhineWestphalia","KampLintfort",37118,51.5,6.5200000000000005
"Germany","Bavaria","Neumarkt",41318,49.28,11.46
"Germany","SaxonyAnhalt","Halberstadt",39318,51.9,11.040000000000001
"Germany","Saxony","Hoyerswerda",33843,51.44,14.24
"Germany","BadenWurttemberg","Schorndorf",38733,48.81,9.52
"Germany","NorthRhineWestphalia","Siegburg",39192,50.81,7.21
"Germany","Saxony","Freital",39361,51.02,13.66
"Germany","Brandenburg","Falkensee",41777,52.550000000000004,13.06
"Germany","LowerSaxony","Buxtehude",40033,53.480000000000004,9.68
"Germany","BadenWurttemberg","Ettlingen",38861,48.95,8.4
"Germany","Bavaria","Schwabach",38862,49.33,11.03
"Germany","NorthRhineWestphalia","Warendorf",38609,51.96,7.98
"Germany","NorthRhineWestphalia","Ahaus",38509,52.09,7.01
"Germany","NorthRhineWestphalia","Voerde",38358,51.6,6.68
"Germany","Saarland","SanktIngbert",36069,49.28,7.11
"Germany","Saarland","Saarlouis",38189,49.33,6.75
"Germany","LowerSaxony","Buchholz",38167,53.34,9.86
"Germany","Hesse","Hofheim",38085,50.09,8.43
"Germany","NorthRhineWestphalia","Haltern",37954,51.75,7.17
"Germany","Hesse","Maintal",38313,50.160000000000004,8.9
"Germany","NorthRhineWestphalia","Hemer",37833,51.39,7.76
"Germany","NorthRhineWestphalia","Wurselen",37392,50.82,6.13
"Germany","NorthRhineWestphalia","Beckum",37275,51.76,8.03
"Germany","Thuringia","Altenburg",32910,51.01,12.44
"Germany","Bavaria","Germering",36956,48.13,11.36
"Germany","Thuringia","Muhlhausen",34552,51.22,10.45
"Germany","BadenWurttemberg","LeinfeldenEchterdingen",38266,48.71,9.13
"Germany","SaxonyAnhalt","Stendal",40269,52.61,11.84
"Germany","Brandenburg","Schwedt",36677,53.07,14.26
"Germany","BadenWurttemberg","SchwabischHall",37952,49.120000000000005,9.73
"Germany","NorthRhineWestphalia","Coesfeld",36660,51.95,7.16
"Germany","NorthRhineWestphalia","Niederkassel",36652,50.82,7.03
"Germany","NorthRhineWestphalia","Wermelskirchen",36386,51.15,7.21
"Germany","NorthRhineWestphalia","Datteln",34521,51.67,7.38
"Germany","NorthRhineWestphalia","Kempen",34630,51.370000000000005,6.41
"Germany","Saxony","Riesa",36140,51.31,13.280000000000001
"Germany","NorthRhineWestphalia","PortaWestfalica",36000,52.22,8.93
"Germany","NorthRhineWestphalia","Lage",35850,52.,8.790000000000001
"Germany","NorthRhineWestphalia","Emsdetten",36320,52.18,7.53
"Germany","BadenWurttemberg","Backnang",35661,48.95,9.43
"Germany","BadenWurttemberg","Sinsheim",34882,49.26,8.870000000000001
"Germany","NorthRhineWestphalia","Greven",35546,52.1,7.62
"Germany","Brandenburg","Bernau",34866,52.68,13.58
"Germany","NorthRhineWestphalia","Wesseling",35360,50.84,6.98
"Germany","Hesse","NeuIsenburg",36354,50.06,8.69
"Germany","Hesse","Langen",35845,50.,8.67
"Germany","LowerSaxony","Papenburg",36698,53.09,7.4
"Germany","RheinlandPalatinate","Zweibrucken",34011,49.25,7.37
"Germany","BadenWurttemberg","Tuttlingen",34586,47.99,8.8
"Germany","LowerSaxony","Uelzen",34758,52.97,10.56
"Germany","BadenWurttemberg","Kehl",34513,48.59,7.8100000000000005
"Germany","BadenWurttemberg","Ostfildern",37785,48.72,9.26
"Germany","LowerSaxony","Meppen",34935,52.7,7.3
"Germany","NorthRhineWestphalia","Steinfurt",34476,52.160000000000004,7.33
"Germany","SaxonyAnhalt","Merseburg",34052,51.36,11.99
"Germany","BadenWurttemberg","Balingen",33537,48.28,8.85
"Germany","LowerSaxony","Barsinghausen",33922,52.31,9.47
"Germany","LowerSaxony","Leer",34128,53.24,7.46
"Germany","NorthRhineWestphalia","Goch",34106,51.68,6.16
"Germany","NorthRhineWestphalia","Geldern",33954,51.52,6.33
"Germany","Brandenburg","Eisenhuttenstadt",30416,52.160000000000004,14.620000000000001
"Germany","SaxonyAnhalt","Wernigerode",33871,51.84,10.790000000000001
"Germany","Hesse","Limburg",34255,50.39,8.05
"Germany","LowerSaxony","Winsen",33830,53.370000000000005,10.21
"Germany","Hesse","MorfeldenWalldorf",33623,49.980000000000004,8.56
"Germany","Bavaria","Furstenfeldbruck",33716,48.19,11.25
"Germany","NorthRhineWestphalia","Julich",32089,50.93,6.36
"Germany","Bavaria","Erding",36291,48.31,11.89
"Germany","NorthRhineWestphalia","Korschenbroich",33401,51.19,6.51
"Germany","SaxonyAnhalt","Schonebeck",33290,52.03,11.74
"Germany","Saxony","Radebeul",33203,51.11,13.63
"Germany","Brandenburg","KonigsWusterhausen",33201,52.300000000000004,13.620000000000001
"Germany","Brandenburg","Furstenwalde",31741,52.370000000000005,14.06
"Germany","Hesse","Dietzenbach",33256,50.02,8.78
"Germany","LowerSaxony","Seelze",33763,52.410000000000004,9.6
"Germany","SchleswigHolstein","Itzehoe",31771,53.94,9.49
"Germany","LowerSaxony","Stuhr",33374,53.02,8.74
"Germany","BadenWurttemberg","Crailsheim",33209,49.14,10.06
"Germany","LowerSaxony","Nienburg",31354,52.64,9.22
"Germany","Hesse","Viernheim",33276,49.550000000000004,8.57
"Germany","NorthRhineWestphalia","Gevelsberg",31315,51.32,7.33
"Germany","LowerSaxony","Georgsmarienhutte",32505,52.2,8.05
"Germany","BadenWurttemberg","Rheinfelden",32441,47.57,7.79
"Germany","NorthRhineWestphalia","Hoxter",32385,51.78,9.370000000000001
"Germany","BadenWurttemberg","Biberach",32174,48.1,9.78
"Germany","NorthRhineWestphalia","Rheinberg",32145,51.550000000000004,6.6000000000000005
"Germany","NorthRhineWestphalia","Werl",32109,51.550000000000004,7.91
"Germany","SchleswigHolstein","Wedel",32048,53.58,9.72
"Germany","Brandenburg","Neuruppin",31901,52.94,12.81
"Germany","NorthRhineWestphalia","Meschede",30002,51.35,8.290000000000001
"Germany","NorthRhineWestphalia","Ennepetal",29926,51.300000000000004,7.34
"Germany","RheinlandPalatinate","IdarOberstein",31791,49.71,7.32
"Germany","NorthRhineWestphalia","Kreuztal",31771,50.97,7.98
"Germany","LowerSaxony","Cloppenburg",31757,52.85,8.040000000000001
"Germany","Hesse","Lampertheim",31851,49.6,8.46
"Germany","Bavaria","Deggendorf",31421,48.85,12.96
"Germany","BadenWurttemberg","Herrenberg",30626,48.6,8.86
"Germany","SaxonyAnhalt","Bernburg",33920,51.800000000000004,11.73
"Germany","NorthRhineWestphalia","Lohmar",31339,50.83,7.22
"Germany","Hesse","BadVilbel",32584,50.19,8.74
"Germany","MecklenburgWesternPomerania","Gustrow",31083,53.800000000000004,12.18
"Germany","Hesse","BadNauheim",30291,50.370000000000005,8.73
"Germany","LowerSaxony","Bramsche",30920,52.410000000000004,7.99
"Germany","Saarland","Merzig",29812,49.45,6.63
"Germany","LowerSaxony","Ganderkesee",31119,53.04,8.540000000000001
"Germany","BadenWurttemberg","Kornwestheim",32680,48.870000000000005,9.19
"Germany","LowerSaxony","OsterholzScharmbeck",30714,53.230000000000004,8.790000000000001
"Germany","LowerSaxony","Northeim",28966,51.71,9.99
"Germany","NorthRhineWestphalia","Werne",30477,51.67,7.63
"Germany","NorthRhineWestphalia","OerErkenschwick",30462,51.64,7.25
"Germany","Hesse","BadHersfeld",29116,50.88,9.700000000000001
"Germany","LowerSaxony","Vechta",30388,52.730000000000004,8.290000000000001
"Germany","Bavaria","Forchheim",30384,49.730000000000004,11.06
"Germany","BadenWurttemberg","Radolfzell",30943,47.74,8.98
"Germany","LowerSaxony","Weyhe",30325,52.980000000000004,8.84
"Germany","SchleswigHolstein","Ahrensburg",33091,53.68,10.23
"Germany","NorthRhineWestphalia","Tonisvorst",30140,51.32,6.44
"Germany","SaxonyAnhalt","Sangerhausen",30123,51.480000000000004,11.290000000000001
"Germany","LowerSaxony","Achim",30059,53.04,9.01
"Germany","NorthRhineWestphalia","Delbruck",30052,51.77,8.56
"Germany","LowerSaxony","Burgdorf",29990,52.46,10.01
"Germany","NorthRhineWestphalia","Waltrop",29948,51.64,7.4
"Germany","NorthRhineWestphalia","Schwelm",28330,51.29,7.28
"Germany","SaxonyAnhalt","Weissenfels",39918,51.21,11.97
"Germany","SaxonyAnhalt","Kothen",26384,51.76,11.97
"Germany","NorthRhineWestphalia","Emmerich",30279,51.85,6.24
"Germany","LowerSaxony","Springe",29656,52.22,9.55
"Germany","RheinlandPalatinate","Andernach",29441,50.44,7.4
"Germany","NorthRhineWestphalia","Wegberg",29583,51.15,6.26
"Germany","BadenWurttemberg","Weil",29683,47.59,7.6000000000000005
"Germany","BadenWurttemberg","Gaggenau",28633,48.81,8.33
"Germany","NorthRhineWestphalia","Oelde",29297,51.84,8.14
"Germany","BadenWurttemberg","Buhl",28624,48.71,8.13
"Germany","NorthRhineWestphalia","Sundern",29434,51.34,7.99
"Germany","NorthRhineWestphalia","Haan",29411,51.2,7.
"Germany","SaxonyAnhalt","Naumburg",29359,51.160000000000004,11.8
"Germany","SchleswigHolstein","Geesthacht",29348,53.45,10.370000000000001
"Germany","LowerSaxony","Wedemark",29291,52.550000000000004,9.700000000000001
"Germany","Bavaria","Friedberg",29189,48.36,10.98
"Germany","Hesse","Taunusstein",29168,50.14,8.14
"Germany","NorthRhineWestphalia","Rietberg",28942,51.78,8.43
"Germany","BadenWurttemberg","Vaihingen",28839,48.94,8.950000000000001
"Germany","NorthRhineWestphalia","Wetter",28804,51.39,7.4
"Germany","NorthRhineWestphalia","NeukirchenVluyn",28491,51.45,6.58
"Germany","SchleswigHolstein","Rendsburg",27617,54.31,9.66
"Germany","NorthRhineWestphalia","Geilenkirchen",28383,50.97,6.11
"Germany","NorthRhineWestphalia","Baesweiler",27834,50.9,6.18
"Germany","NorthRhineWestphalia","Warstein",25407,51.45,8.36
"Germany","Bavaria","Schwandorf",28164,49.33,12.11
"Germany","BadenWurttemberg","Bretten",28157,49.050000000000004,8.700000000000001
"Germany","SaxonyAnhalt","Zeitz",28117,51.06,12.13
"Germany","Brandenburg","Senftenberg",24625,51.53,13.99
"Germany","Saxony","Meissen",28057,51.17,13.47
"Germany","NorthRhineWestphalia","Kevelaer",28020,51.59,6.24
"Germany","Bavaria","Neuburg",27967,48.74,11.18
"Germany","LowerSaxony","Rinteln",25527,52.21,9.08
"Germany","Hesse","Baunatal",27617,51.25,9.41
"Germany","BadenWurttemberg","Winnenden",27932,48.88,9.4
"Germany","Thuringia","Saalfeld",27728,50.65,11.35
"Germany","Hesse","Friedberg",27859,50.34,8.75
"Germany","NorthRhineWestphalia","Plettenberg",25781,51.22,7.88
"Germany","NorthRhineWestphalia","Lennestadt",27626,51.120000000000005,8.06
"Germany","NorthRhineWestphalia","Hamminkeln",27579,51.74,6.57
"Germany","LowerSaxony","Einbeck",31076,51.83,9.870000000000001
"Germany","NorthRhineWestphalia","Leichlingen",27542,51.1,6.99
"Germany","Bavaria","Konigsbrunn",27540,48.28,10.89
"Germany","Saxony","Delitzsch",24850,51.53,12.33
"Germany","RheinlandPalatinate","BadNeuenahrAhrweiler",27487,50.550000000000004,7.13
"Germany","LowerSaxony","Nordenham",26294,53.52,8.49
"Germany","NorthRhineWestphalia","Selm",27456,51.7,7.46
"Germany","BadenWurttemberg","Geislingen",27442,48.63,9.83
"Germany","NorthRhineWestphalia","Heiligenhaus",27415,51.32,6.96
"Germany","Bavaria","Kulmbach",27368,50.120000000000005,11.44
"Germany","NorthRhineWestphalia","Mechernich",27170,50.6,6.65
"Germany","BadenWurttemberg","Wangen",26679,47.69,9.83
"Germany","BadenWurttemberg","Neckarsulm",25798,49.19,9.22
"Germany","Bavaria","Landsberg",28708,48.06,10.870000000000001
"Germany","NorthRhineWestphalia","Overath",27213,50.95,7.3
"Germany","SchleswigHolstein","HenstedtUlzburg",27189,53.78,9.99
"Germany","LowerSaxony","BadZwischenahn",28484,53.19,8.
"Germany","NorthRhineWestphalia","Rosrath",27128,50.910000000000004,7.19
"Germany","Hesse","Kelkheim",27100,50.14,8.44
"Germany","BadenWurttemberg","Leimen",26097,49.35,8.69
"Germany","LowerSaxony","Verden",26973,52.93,9.24
"Germany","Saarland","SanktWendel",26967,49.480000000000004,7.16
"Germany","NorthRhineWestphalia","Brilon",26964,51.4,8.57
"Germany","NorthRhineWestphalia","Rheinbach",26710,50.63,6.95
"Germany","NorthRhineWestphalia","Petershagen",26657,52.39,8.96
"Germany","Brandenburg","Rathenow",26640,52.6,12.33
"Germany","Hesse","Muhlheim",26485,50.13,8.84
"Germany","Saxony","LimbachOberfrohna",27056,50.870000000000005,12.74
"Germany","Thuringia","Ilmenau",26153,50.69,10.91
"Germany","NorthRhineWestphalia","Wiehl",26408,50.99,7.48
"Germany","Brandenburg","Strausberg",26402,52.58,13.88
"Germany","BadenWurttemberg","Emmendingen",26330,48.13,7.8500000000000005
"Germany","BadenWurttemberg","Weinstadt",26685,48.82,9.38
"Germany","Bavaria","Unterschleissheim",26247,48.28,11.58
"Germany","Bavaria","Lauf",26245,49.52,11.28
"Germany","Hesse","Rodermark",26192,49.980000000000004,8.83
"Germany","NorthRhineWestphalia","Lubbecke",26188,52.300000000000004,8.61
"Germany","BadenWurttemberg","Horb",24665,48.44,8.68
"Germany","Bavaria","GarmischPartenkirchen",26821,47.5,11.08
"Germany","BadenWurttemberg","Muhlacker",25211,48.96,8.84
"Germany","NorthRhineWestphalia","SchlossHolteStukenbrock",26053,51.92,8.66
"Germany","Brandenburg","Hennigsdorf",26007,52.64,13.21
"Germany","NorthRhineWestphalia","Sprockhovel",25982,51.36,7.24
"Germany","Brandenburg","Spremberg",25952,51.57,14.38
"Germany","NorthRhineWestphalia","Schmallenberg",25951,51.160000000000004,8.3
"Germany","BadenWurttemberg","Ehingen",24862,48.29,9.72
"Germany","BadenWurttemberg","Wiesloch",25642,49.300000000000004,8.69
"Germany","NorthRhineWestphalia","Espelkamp",25860,52.39,8.620000000000001
"Germany","SaxonyAnhalt","Aschersleben",27701,51.76,11.47
"Germany","Saxony","Glauchau",25760,50.82,12.540000000000001
"Germany","SchleswigHolstein","Reinbek",25712,53.52,10.25
"Germany","BadenWurttemberg","Rottweil",25638,48.17,8.620000000000001
"Germany","NorthRhineWestphalia","Olpe",25612,51.04,7.8500000000000005
"Germany","LowerSaxony","Lohne",25563,52.660000000000004,8.25
"Germany","Thuringia","Arnstadt",24481,50.85,10.950000000000001
"Germany","Hesse","Griesheim",25436,49.870000000000005,8.56
"Germany","Hesse","Heppenheim",25391,49.65,8.63
"Germany","NorthRhineWestphalia","Herdecke",22818,51.4,7.43
"Germany","Bavaria","Zirndorf",25352,49.46,10.96
"Germany","Hesse","Hattersheim",25247,50.08,8.48
"Germany","NorthRhineWestphalia","UbachPalenberg",25234,50.94,6.11
"Germany","Hesse","Butzbach",25557,50.44,8.66
"Germany","LowerSaxony","Helmstedt",25186,52.230000000000004,11.
"Germany","LowerSaxony","Norden",25147,53.61,7.2
"Germany","NorthRhineWestphalia","BadHonnef",25078,50.65,7.22
"Germany","Thuringia","Rudolstadt",22667,50.72,11.33
"Germany","LowerSaxony","Varel",23936,53.4,8.14
"Germany","BadenWurttemberg","Ellwangen",25276,48.97,10.13
"Germany","Saxony","Zittau",24984,50.9,14.81
"Germany","Bavaria","Roth",24972,49.25,11.09
"Germany","BadenWurttemberg","Mosbach",22781,49.36,9.15
"Germany","LowerSaxony","HannoverschMunden",24930,51.42,9.68
"Germany","NorthRhineWestphalia","Bedburg",23037,51.,6.57
"Germany","Brandenburg","BlankenfeldeMahlow",24907,52.34,13.39
"Germany","NorthRhineWestphalia","Meckenheim",24902,50.64,7.01
"Germany","BadenWurttemberg","Achern",25018,48.63,8.08
"Germany","NorthRhineWestphalia","Verl",24852,51.89,8.51
"Germany","NorthRhineWestphalia","Salzkotten",24842,51.67,8.59
"Germany","Hesse","Pfungstadt",24790,49.81,8.6
"Germany","NorthRhineWestphalia","Attendorn",24676,51.14,7.9
"Germany","RheinlandPalatinate","Bingen",24987,49.97,7.88
"Germany","LowerSaxony","Syke",24584,52.92,8.81
"Germany","NorthRhineWestphalia","Netphen",24568,50.92,8.1
"Germany","Bavaria","Lindau",24537,47.56,9.700000000000001
"Germany","RheinlandPalatinate","Ingelheim",24155,49.980000000000004,8.06
"Germany","Hesse","Friedrichsdorf",24483,50.27,8.65
"Germany","LowerSaxony","Osterode",24474,51.730000000000004,10.26
"Germany","LowerSaxony","Walsrode",24404,52.870000000000005,9.6
"Germany","Brandenburg","Ludwigsfelde",23956,52.31,13.25
"Germany","SaxonyAnhalt","Burg",24364,52.28,11.85
"Germany","Hesse","Korbach",23515,51.29,8.870000000000001
"Germany","Bavaria","Olching",24343,48.21,11.33
"Germany","Hesse","Dillenburg",23431,50.75,8.290000000000001
"Germany","BadenWurttemberg","Wertheim",24302,49.76,9.51
"Germany","NorthRhineWestphalia","Ludinghausen",24298,51.78,7.44
"Germany","SaxonyAnhalt","Wolfen",24288,51.63,12.3
"Germany","NorthRhineWestphalia","Harsewinkel",24769,51.97,8.23
"Germany","BadenWurttemberg","Ditzingen",24633,48.83,9.06
"Germany","Bavaria","Waldkraiburg",24216,48.21,12.39
"Germany","Hesse","Obertshausen",24459,50.09,8.85
"Germany","Hesse","Weiterstadt",24195,49.910000000000004,8.6
"Germany","NorthRhineWestphalia","Warburg",24160,51.49,9.15
"Germany","SchleswigHolstein","Schleswig",24035,54.54,9.55
"Germany","Thuringia","Apolda",24088,51.03,11.51
"Germany","LowerSaxony","Wallenhorst",23125,52.35,8.01
"Germany","SchleswigHolstein","BadOldesloe",24938,53.81,10.370000000000001
"Germany","BadenWurttemberg","Freudenstadt",22579,48.47,8.41
"Germany","Saxony","Werdau",23925,50.74,12.38
"Germany","Saxony","Markkleeberg",24240,51.29,12.370000000000001
"Germany","SaxonyAnhalt","Eisleben",24198,51.53,11.55
"Germany","Bavaria","Pfaffenhofen",23716,48.53,11.5
"Germany","NorthRhineWestphalia","Radevormwald",23704,51.2,7.3500000000000005
"Germany","BadenWurttemberg","Calw",22600,48.72,8.74
"Germany","NorthRhineWestphalia","Wipperfurth",23616,51.13,7.390000000000001
"Germany","Hesse","GrossGerau",23549,49.93,8.48
"Germany","BadenWurttemberg","Weingarten",23881,47.81,9.63
"Germany","Thuringia","Sonneberg",23736,50.36,11.18
"Germany","Thuringia","Greiz",23368,50.660000000000004,12.200000000000001
"Germany","BadenWurttemberg","Stutensee",23829,49.1,8.49
"Germany","Bavaria","Geretsried",23337,47.870000000000005,11.46
"Germany","Brandenburg","HohenNeuendorf",23337,52.67,13.27
"Germany","LowerSaxony","Ronnenberg",24050,52.32,9.64
"Germany","LowerSaxony","Stadthagen",22148,52.33,9.19
"Germany","Brandenburg","Werder",23015,52.39,12.93
"Germany","SchleswigHolstein","Eckernforde",23008,54.47,9.83
"Germany","Bavaria","Starnberg",22959,48.01,11.34
"Germany","Bavaria","Herzogenaurach",23095,49.57,10.88
"Germany","LowerSaxony","Haren",23747,52.79,7.23
"Germany","Hesse","Idstein",24108,50.24,8.26
"Germany","Saxony","AnnabergBuchholz",22808,50.58,13.01
"Germany","NorthRhineWestphalia","Alfter",22803,50.74,7.01
"Germany","Saarland","Blieskastel",20886,49.25,7.25
"Germany","BadenWurttemberg","Nagold",21470,48.550000000000004,8.73
"Germany","BadenWurttemberg","Ohringen",23489,49.21,9.5
"Germany","SaxonyAnhalt","Stassfurt",22758,51.86,11.58
"Germany","LowerSaxony","Isernhagen",24001,52.47,9.82
"Germany","NorthRhineWestphalia","Vreden",22723,52.04,6.83
"Germany","NorthRhineWestphalia","Juchen",22704,51.11,6.49
"Germany","NorthRhineWestphalia","Frondenberg",22694,51.47,7.76
"Germany","LowerSaxony","Sehnde",23584,52.32,9.950000000000001
"Germany","LowerSaxony","Duderstadt",22687,51.52,10.27
"Germany","BadenWurttemberg","Remseck",25759,48.88,9.28
"Germany","BadenWurttemberg","WaldshutTiengen",23674,47.64,8.2
"Germany","NorthRhineWestphalia","Rees",22578,51.77,6.4
"Germany","NorthRhineWestphalia","Lindlar",22562,51.02,7.37
"Germany","LowerSaxony","Moormerland",23236,53.33,7.45
"Germany","LowerSaxony","BadHarzburg",21969,51.89,10.56
"Germany","BadenWurttemberg","BadMergentheim",23064,49.49,9.77
"Germany","BadenWurttemberg","Leutkirch",22344,47.83,10.02
"Germany","NorthRhineWestphalia","Lengerich",22461,52.19,7.86
"Germany","BadenWurttemberg","Schwetzingen",21494,49.39,8.58
"Germany","SaxonyAnhalt","Quedlinburg",22185,51.79,11.15
"Germany","Saxony","Coswig",22164,51.14,13.56
"Germany","MecklenburgWesternPomerania","Neustrelitz",20504,53.370000000000005,13.06
"Germany","LowerSaxony","Rotenburg",21548,53.120000000000005,9.4
"Germany","LowerSaxony","Westerstede",22399,53.27,7.92
"Germany","Brandenburg","Forst",22112,51.74,14.63
"Germany","Bavaria","Senden",22108,48.32,10.06
"Germany","Saxony","Weisswasser",17074,51.51,14.64
"Germany","Saxony","Borna",22077,51.13,12.49
"Germany","NorthRhineWestphalia","Buren",22032,51.56,8.56
"Germany","BadenWurttemberg","Schramberg",20985,48.24,8.38
"Germany","BadenWurttemberg","Metzingen",21394,48.54,9.290000000000001
"Germany","LowerSaxony","Soltau",22001,52.99,9.83
"Germany","Saxony","Crimmitschau",19180,50.82,12.38
"Germany","Bavaria","Neusass",21617,48.39,10.84
"Germany","NorthRhineWestphalia","Wulfrath",21917,51.29,7.05
"Germany","Bavaria","Unterhaching",21834,48.08,11.6
"Germany","Hesse","Karben",21754,50.24,8.74
"Germany","Hesse","Gelnhausen",22687,50.2,9.18
"Germany","NorthRhineWestphalia","Marsberg",21689,51.46,8.86
"Germany","NorthRhineWestphalia","Meinerzhagen",21982,51.120000000000005,7.65
"Germany","NorthRhineWestphalia","Xanten",21281,51.67,6.45
"Germany","NorthRhineWestphalia","Elsdorf",21552,50.94,6.5600000000000005
"Germany","Hesse","GrossUmstadt",21542,49.88,8.93
"Germany","Hesse","Stadtallendorf",21540,50.84,9.01
"Germany","Bavaria","Weilheim",21482,47.84,11.15
"Germany","Saxony","Reichenbach",21478,50.620000000000005,12.3
"Germany","Hesse","Budingen",21579,50.300000000000004,9.11
"Germany","Saarland","Dillingen",20385,49.36,6.73
"Germany","BadenWurttemberg","Eppingen",21094,49.14,8.91
"Germany","Bavaria","Vaterstetten",21401,48.11,11.77
"Germany","BadenWurttemberg","Uberlingen",22224,47.77,9.16
"Germany","LowerSaxony","BadPyrmont",19154,51.99,9.26
"Germany","BadenWurttemberg","Donaueschingen",21746,47.96,8.49
"Germany","LowerSaxony","Seesen",19314,51.9,10.18
"Germany","Hesse","Riedstadt",21348,49.84,8.5
"Germany","NorthRhineWestphalia","Halle",21329,52.07,8.35
"Germany","LowerSaxony","Wittmund",20437,53.57,7.78
"Germany","Thuringia","Sondershausen",22039,51.370000000000005,10.86
"Germany","Hesse","BadSoden",21357,50.14,8.5
"Germany","NorthRhineWestphalia","Wilnsdorf",20512,50.82,8.1
"Germany","Thuringia","Meiningen",21267,50.57,10.41
"Germany","MecklenburgWesternPomerania","Waren",21153,53.52,12.68
"Germany","Brandenburg","Luckenwalde",21616,52.1,13.17
"Germany","Bavaria","Lichtenfels",20080,50.160000000000004,11.06
"Germany","LowerSaxony","Schortens",20416,53.54,7.95
"Germany","Bavaria","BadKissingen",21092,50.21,10.08
"Germany","Bavaria","Traunreut",21085,47.97,12.6
"Germany","NorthRhineWestphalia","Versmold",21059,52.050000000000004,8.15
"Germany","LowerSaxony","Edewecht",21013,53.120000000000005,7.99
"Germany","RheinlandPalatinate","Germersheim",21003,49.22,8.370000000000001
"Germany","NorthRhineWestphalia","Windeck",20995,50.82,7.5600000000000005
"Germany","Bavaria","Sonthofen",20982,47.52,10.290000000000001
"Germany","LowerSaxony","Alfeld",20960,52.,9.83
"Germany","NorthRhineWestphalia","NeunkirchenSeelscheid",19537,50.89,7.3100000000000005
"Germany","Saxony","Dobeln",20943,51.13,13.11
"Germany","Saxony","Auerbach",18893,50.52,12.4
"Germany","Brandenburg","Guben",20885,51.95,14.700000000000001
"Germany","Bavaria","Kitzingen",20474,49.74,10.15
"Germany","LowerSaxony","Buckeburg",19182,52.27,9.05
"Germany","BadenWurttemberg","Hockenheim",21011,49.33,8.55
"Germany","Hesse","Herborn",20351,50.69,8.31
"Germany","Bavaria","Aichach",20805,48.47,11.13
"Germany","Hesse","Bruchkobel",20892,50.19,8.91
"Germany","SaxonyAnhalt","Salzwedel",24084,52.86,11.14
"Germany","Hesse","Eschborn",20771,50.14,8.540000000000001
"Germany","Brandenburg","Wandlitz",20760,52.75,13.450000000000001
"Germany","SchleswigHolstein","Husum",22430,54.49,9.05
"Germany","Brandenburg","Prenzlau",20735,53.33,13.870000000000001
"Germany","SchleswigHolstein","Heide",21525,54.2,9.08
"Germany","NorthRhineWestphalia","Stadtlohn",20674,51.99,6.93
"Germany","Thuringia","Sommerda",18996,51.17,11.120000000000001
"Germany","LowerSaxony","Holzminden",20667,51.83,9.450000000000001
"Germany","BadenWurttemberg","BadRappenau",20268,49.24,9.11
"Germany","NorthRhineWestphalia","Senden",20657,51.86,7.5
"Germany","NorthRhineWestphalia","Geseke",20656,51.64,8.51
"Germany","LowerSaxony","Friesoythe",22082,53.02,7.8500000000000005
"Germany","Hesse","Eschwege",19466,51.2,10.05
"Germany","NorthRhineWestphalia","Engelskirchen",20568,50.99,7.390000000000001
"Germany","RheinlandPalatinate","Hassloch",20123,49.370000000000005,8.26
"Germany","Saarland","Puttlingen",20552,49.29,6.88
"Germany","LowerSaxony","NeuWulmstorf",20545,53.47,9.8
"Germany","LowerSaxony","Rastede",22244,53.25,8.19
"Germany","BadenWurttemberg","Waldkirch",21260,48.1,7.96
"Germany","NorthRhineWestphalia","Hiddenhausen",20490,52.17,8.61
"Germany","BadenWurttemberg","Eislingen",19948,48.71,9.700000000000001
"Germany","LowerSaxony","Burgwedel",20594,52.5,9.85
"Germany","NorthRhineWestphalia","BadBerleburg",19774,51.050000000000004,8.39
"Germany","NorthRhineWestphalia","Ennigerloh",20037,51.84,8.01
"Germany","Bavaria","SulzbachRosenberg",20409,49.51,11.74
"Germany","BadenWurttemberg","Waghausel",20378,49.25,8.5
"Germany","NorthRhineWestphalia","Bergneustadt",20375,51.04,7.65
"Germany","LowerSaxony","Uetze",20180,52.47,10.19
"Germany","Brandenburg","Teltow",20315,52.410000000000004,13.3
"Germany","BadenWurttemberg","Rheinstetten",20279,48.96,8.31
"Germany","NorthRhineWestphalia","Nottuln",20253,51.94,7.3500000000000005
"Germany","SchleswigHolstein","Quickborn",20608,53.730000000000004,9.89
"Germany","Bavaria","Gersthofen",20188,48.43,10.88
"Germany","NorthRhineWestphalia","Zulpich",20105,50.7,6.65
"Germany","BadenWurttemberg","Mossingen",19731,48.42,9.06
"Germany","NorthRhineWestphalia","Enger",20062,52.15,8.55
"Germany","NorthRhineWestphalia","Kurten",20059,51.050000000000004,7.26
"Germany","NorthRhineWestphalia","Wachtberg",20050,50.63,7.11
"Germany","BadenWurttemberg","Oberkirch",19732,48.54,8.08
"Germany","LowerSaxony","Westoverledingen",20775,53.14,7.43
"Germany","Hesse","Florsheim",20623,50.02,8.43
"Germany","NorthRhineWestphalia","Reichshof",20014,50.97,7.73
"Germany","Saarland","Heusweiler",20002,49.35,6.93
"Germany","NorthRhineWestphalia","Altena",20001,51.31,7.66
"Germany","Hesse","Seligenstadt",19975,50.06,8.98
"Germany","Hesse","Nidderau",19924,50.25,8.86
"Germany","NorthRhineWestphalia","Steinhagen",19967,52.01,8.4
"Germany","Saarland","Lebach",21583,49.410000000000004,6.91
"Germany","LowerSaxony","Schwanewede",20075,53.24,8.6
"Germany","BadenWurttemberg","Giengen",19135,48.63,10.24
"Germany","NorthRhineWestphalia","Horstel",19904,52.32,7.57
"Germany","NorthRhineWestphalia","Wenden",19885,50.97,7.87
"Germany","NorthRhineWestphalia","Vlotho",19859,52.17,8.85
"Germany","NorthRhineWestphalia","Werdohl",19838,51.27,7.76
"Germany","Hesse","Haiger",19825,50.76,8.21
"Germany","NorthRhineWestphalia","Eitorf",19817,50.78,7.45
"Germany","SchleswigHolstein","BadSchwartau",19817,53.92,10.700000000000001
"Germany","BadenWurttemberg","BadWaldsee",20011,47.92,9.75
"Germany","Bavaria","Ottobrunn",21378,48.07,11.67
"Germany","SchleswigHolstein","Kaltenkirchen",20331,53.84,9.96
"Germany","Bavaria","Gunzburg",19723,48.46,10.28
"Germany","SaxonyAnhalt","Haldensleben",19618,52.31,11.4
"Germany","LowerSaxony","HessischOldendorf",19612,52.18,9.24
"Germany","Brandenburg","Wittenberge",19566,53.01,11.75
"Germany","NorthRhineWestphalia","Waldbrol",19563,50.89,7.62
"Germany","NorthRhineWestphalia","Telgte",19522,51.99,7.7700000000000005
"Germany","Saxony","Grimma",28480,51.24,12.71
"Germany","Bavaria","Gauting",19435,48.08,11.38
"Germany","RheinlandPalatinate","Schifferstadt",19425,49.39,8.370000000000001
"Germany","Bavaria","Puchheim",19419,48.15,11.35
"Germany","NorthRhineWestphalia","BadDriburg",18554,51.74,9.01
"Germany","NorthRhineWestphalia","Ochtrup",19599,52.22,7.19
"Germany","BadenWurttemberg","Hechingen",18839,48.36,8.96
"Germany","NorthRhineWestphalia","Schwalmtal",19342,51.22,6.2700000000000005
"Germany","BadenWurttemberg","Schopfheim",19124,47.660000000000004,7.8100000000000005
"Germany","NorthRhineWestphalia","Rhede",19293,51.83,6.7
"Germany","BadenWurttemberg","Laupheim",20655,48.24,9.88
"Germany","Bavaria","Nordlingen",19223,48.86,10.49
"Germany","BadenWurttemberg","WeilDerStadt",18652,48.75,8.870000000000001
"Germany","Hesse","Frankenberg",17855,51.07,8.790000000000001
"Germany","LowerSaxony","Sudbrookmerland",18605,53.47,7.33
"Germany","Bavaria","Grobenzell",19202,48.2,11.36
"Germany","MecklenburgWesternPomerania","Parchim",19187,53.43,11.84
"Germany","RheinlandPalatinate","Mayen",19164,50.33,7.22
"Germany","LowerSaxony","Bremervorde",19118,53.49,9.13
"Germany","Hesse","Schwalmstadt",19075,50.94,9.21
"Germany","LowerSaxony","Schneverdingen",18624,53.13,9.790000000000001
"Germany","NorthRhineWestphalia","Bonen",18059,51.6,7.76
"Germany","NorthRhineWestphalia","Burscheid",19025,51.1,7.11
"Germany","Brandenburg","Panketal",19249,52.6331,13.55
"Germany","Bavaria","Alzenau",18971,50.09,9.06
"Germany","BadenWurttemberg","BadFriedrichshall",18274,49.22,9.22
"Germany","NorthRhineWestphalia","BadMunstereifel",18875,50.550000000000004,6.76
"Germany","BadenWurttemberg","Gerlingen",19151,48.800000000000004,9.06
"Germany","RheinlandPalatinate","BadDurkheim",18499,49.47,8.16
"Germany","BadenWurttemberg","Buchen",17704,49.52,9.33
"Germany","Saarland","Bexbach",18792,49.35,7.25
"Germany","Brandenburg","Kleinmachnow",20562,52.42,13.21
"Germany","SchleswigHolstein","Molln",18856,53.63,10.69
"Germany","Saarland","Wadgassen",18634,49.27,6.79
"Germany","LowerSaxony","Langen",18395,53.620000000000005,8.6
"Germany","Saxony","Radeberg",18491,51.120000000000005,13.91
"Germany","NorthRhineWestphalia","Freudenberg",18601,50.9,7.86
"Germany","Bavaria","Traunstein",18598,47.870000000000005,12.64
"Germany","LowerSaxony","Sarstedt",19261,52.24,9.84
"Germany","Bavaria","Neufahrn",18584,48.32,11.67
"Germany","LowerSaxony","Hemmingen",18872,52.32,9.74
"Germany","Thuringia","BadLangensalza",17483,51.11,10.64
"Germany","LowerSaxony","Wildeshausen",19560,52.9,8.43
"Germany","Bavaria","Dillingen",18541,48.58,10.5
"Germany","Brandenburg","Finsterwalde",16548,51.63,13.700000000000001
"Germany","BadenWurttemberg","Tettnang",18473,47.67,9.59
"Germany","Saxony","Schkeuditz",17861,51.410000000000004,12.21
"Germany","Bavaria","Dingolfing",18443,48.64,12.5
"Germany","Brandenburg","Lauchhammer",18396,51.5,13.77
"Germany","NorthRhineWestphalia","Finnentrop",18380,51.17,7.96
"Germany","Hesse","Heusenstamm",18752,50.07,8.790000000000001
"Germany","Saxony","Torgau",18340,51.56,12.99
"Germany","Saarland","Schwalbach",18339,49.31,6.8100000000000005
"Germany","Bavaria","Marktoberdorf",18349,47.78,10.620000000000001
"Germany","NorthRhineWestphalia","HornBadMeinberg",17120,51.870000000000005,8.94
"Germany","NorthRhineWestphalia","Swisttal",18315,50.7,6.91
"Germany","BadenWurttemberg","KorntalMunchingen",18701,48.84,9.120000000000001
"Germany","Bavaria","Haar",18302,48.11,11.73
"Germany","RheinlandPalatinate","Lahnstein",17973,50.31,7.62
"Germany","BadenWurttemberg","Pfullingen",17870,48.47,9.22
"Germany","LowerSaxony","BadMunder",17384,52.2,9.46
"Germany","Hesse","Vellmar",18250,51.36,9.47
"Germany","Saxony","Aue",18209,50.59,12.700000000000001
"Germany","Saxony","Schwarzenberg",18207,50.56,12.790000000000001
"Germany","SchleswigHolstein","Schenefeld",19152,53.61,9.81
"Germany","LowerSaxony","Lilienthal",18796,53.14,8.91
"Germany","RheinlandPalatinate","Alzey",17519,49.76,8.11
"Germany","BadenWurttemberg","Mullheim",18286,47.81,7.62
"Germany","Bavaria","Donauworth",18550,48.730000000000004,10.78
"Germany","Bavaria","Karlsfeld",18149,48.22,11.46
"Germany","Saarland","Sulzbach",18128,49.31,7.0600000000000005
"Germany","Bavaria","Burghausen",18108,48.17,12.83
"Germany","Hesse","Nidda",18069,50.42,9.
"Germany","NorthRhineWestphalia","Kreuzau",18045,50.75,6.47
"Germany","Hesse","Pohlheim",18043,50.54,8.74
"Germany","Saxony","Kamenz",18009,51.28,14.09
"Germany","Saarland","Illingen",17999,49.370000000000005,7.04
"Germany","BadenWurttemberg","Pfinztal",17601,48.980000000000004,8.55
"Germany","NorthRhineWestphalia","Kierspe",17974,51.14,7.57
"Germany","Saarland","Eppelborn",17908,49.410000000000004,6.96
"Germany","Hesse","BadWildungen",16777,51.13,9.120000000000001
"Germany","Bavaria","Kronach",17884,50.24,11.32
"Germany","RheinlandPalatinate","Konz",17868,49.7,6.58
"Germany","SchleswigHolstein","Uetersen",17865,53.69,9.67
"Germany","Bavaria","Marktredwitz",17130,50.,12.08
"Germany","RheinlandPalatinate","Wittlich",17826,49.99,6.890000000000001
"Germany","Bavaria","Kolbermoor",17942,47.85,12.06
"Germany","Bavaria","BadAibling",17795,47.870000000000005,12.
"Germany","Thuringia","Schmalkalden",19291,50.730000000000004,10.450000000000001
"Germany","BadenWurttemberg","BadSaulgau",17286,48.02,9.49
"Germany","Hesse","Kronberg",17713,50.19,8.49
"Germany","Saxony","Lobau",15003,51.1,14.67
"Germany","Bavaria","Muhldorf",17685,48.26,12.52
"Germany","RheinlandPalatinate","Sinzig",17653,50.56,7.25
"Germany","Bavaria","Weissenburg",17976,49.04,10.97
"Germany","Bavaria","BadTolz",18475,47.76,11.56
"Germany","Saxony","Wurzen",16364,51.370000000000005,12.73
"Germany","Bavaria","Taufkirchen",17599,48.050000000000004,11.61
"Germany","Brandenburg","Lubbenau",16237,51.870000000000005,13.96
"Germany","RheinlandPalatinate","Worth",17521,49.050000000000004,8.26
"Germany","NorthRhineWestphalia","Brakel",17475,51.730000000000004,9.18
"Germany","NorthRhineWestphalia","Holzwickede",17446,51.5,7.63
"Germany","NorthRhineWestphalia","Numbrecht",17434,50.910000000000004,7.55
"Germany","Hesse","Reinheim",17433,49.83,8.83
"Germany","Bavaria","Wolfratshausen",17426,47.910000000000004,11.43
"Germany","Bavaria","BadReichenhall",17443,47.730000000000004,12.88
"Germany","RheinlandPalatinate","Bendorf",17395,50.43,7.57
"Germany","SaxonyAnhalt","Oschersleben",17900,52.04,11.23
"Germany","Saxony","Eilenburg",15452,51.46,12.620000000000001
"Germany","SchleswigHolstein","Eutin",17041,54.14,10.6
"Germany","Brandenburg","Zossen",17321,52.22,13.450000000000001
"Germany","BadenWurttemberg","Sachsenheim",17861,48.96,9.06
"Germany","Hesse","Alsfeld",15889,50.76,9.26
"Germany","Saarland","Schmelz",17307,49.45,6.8500000000000005
"Germany","NorthRhineWestphalia","Halver",17306,51.21,7.47
"Germany","LowerSaxony","Rhauderfehn",17857,53.14,7.62
"Germany","Bavaria","Moosburg",17284,48.480000000000004,11.93
"Germany","Bavaria","Cham",17245,49.230000000000004,12.65
"Germany","BadenWurttemberg","Renningen",17235,48.77,8.93
"Germany","Thuringia","Zeulenroda",17211,50.65,11.98
"Germany","Hesse","Schluchtern",15946,50.36,9.53
"Germany","Saarland","Schiffweiler",17181,49.370000000000005,7.13
"Germany","NorthRhineWestphalia","Oerlinghausen",17151,51.97,8.66
"Germany","NorthRhineWestphalia","Gescher",17128,51.95,7.01
"Germany","Brandenburg","Templin",17127,53.13,13.49
"Germany","Thuringia","HeilbadHeiligenstadt",16772,51.38,10.13
"Germany","Hesse","Michelstadt",17059,49.68,9.01
"Germany","Bavaria","Oberasbach",17048,49.44,10.950000000000001
"Germany","LowerSaxony","Munster",14958,53.,10.08
"Germany","Bavaria","Gilching",18340,48.120000000000005,11.290000000000001
"Germany","NorthRhineWestphalia","Blomberg",16972,51.95,9.09
"Germany","Saxony","Meerane",16937,50.85,12.46
"Germany","Saarland","Wadern",16933,49.54,6.88
"Germany","Hesse","Eltville",16897,50.04,8.11
"Germany","NorthRhineWestphalia","Wassenberg",16862,51.1,6.15
"Germany","BadenWurttemberg","BadSackingen",16416,47.56,7.94
"Germany","Bavaria","Selb",14928,50.18,12.13
"Germany","BadenWurttemberg","Stockach",16783,47.86,9.01
"Germany","Hesse","Hochheim",16756,50.02,8.35
"Germany","Saarland","Losheim",16023,49.52,6.75
"Germany","Saxony","Heidenau",16257,50.99,13.86
"Germany","Brandenburg","Nauen",16600,52.61,12.88
"Germany","Hesse","BadArolsen",15399,51.39,9.01
"Germany","Bavaria","Bobingen",16634,48.27,10.82
"Germany","LowerSaxony","Diepholz",16611,52.61,8.370000000000001
"Germany","MecklenburgWesternPomerania","RibnitzDamgarten",15104,54.24,12.43
"Germany","BadenWurttemberg","Sigmaringen",15756,48.09,9.21
"Germany","Saxony","Frankenberg",14462,50.92,13.040000000000001
"Germany","SchleswigHolstein","Stockelsdorf",16506,53.910000000000004,10.65
"Germany","Brandenburg","Neuenhagen",16494,52.53,13.69
"Germany","Thuringia","BadSalzungen",15763,50.81,10.21
"Germany","SchleswigHolstein","Neustadt",16471,54.11,10.81
"Germany","Bavaria","Illertissen",16694,48.230000000000004,10.1
"Germany","Bavaria","Gunzenhausen",16432,49.120000000000005,10.76
"Germany","NorthRhineWestphalia","Hille",16443,52.34,8.74
"Germany","NorthRhineWestphalia","Kirchlengern",16439,52.2,8.620000000000001
"Germany","Hesse","Kunzell",16420,50.550000000000004,9.71
"Germany","Bavaria","Grossostheim",16412,49.92,9.08
"Germany","NorthRhineWestphalia","Weilerswist",16410,50.77,6.83
"Germany","Bavaria","Vilshofen",16408,48.64,13.18
"Germany","Hesse","Kirchhain",16389,50.82,8.96
"Germany","Saxony","Schneeberg",16380,50.61,12.64
"Germany","LowerSaxony","Damme",16940,52.52,8.2
"Germany","Saxony","HohensteinErnstthal",14866,50.81,12.71
"Germany","SchleswigHolstein","Halstenbek",17623,53.64,9.84
"Germany","NorthRhineWestphalia","Huckeswagen",16295,51.15,7.34
"Germany","Saxony","Mittweida",16277,50.99,12.98
"Germany","Hesse","Hunfeld",16274,50.68,9.76
"Germany","RheinlandPalatinate","Remagen",16267,50.57,7.23
"Germany","LowerSaxony","Bassum",15737,52.85,8.73
"Germany","Hesse","Hofgeismar",16256,51.5,9.38
"Germany","NorthRhineWestphalia","Hilchenbach",16237,50.99,8.09
"Germany","BadenWurttemberg","BadKrozingen",17839,47.92,7.7
"Germany","NorthRhineWestphalia","HerzebrockClarholz",16219,51.89,8.24
"Germany","LowerSaxony","Konigslutter",16214,52.25,10.81
"Germany","LowerSaxony","Loxstedt",16206,53.47,8.65
"Germany","RheinlandPalatinate","Boppard",15404,50.24,7.6000000000000005
"Germany","Bavaria","Schrobenhausen",16200,48.57,11.26
"Germany","Hesse","Babenhausen",16170,49.97,8.950000000000001
"Germany","LowerSaxony","Vechelde",16141,52.27,10.36
"Germany","SchleswigHolstein","Glinde",16139,53.56,10.21
"Germany","LowerSaxony","Brake",16133,53.34,8.55
"Germany","NorthRhineWestphalia","Bruggen",15482,51.24,6.19
"Germany","Bavaria","Penzberg",16119,47.76,11.38
"Germany","BadenWurttemberg","Karlsbad",15734,48.910000000000004,8.56
"Germany","Hesse","SeeheimJugenheim",16115,49.77,8.63
"Germany","Bavaria","Neustadt",16109,50.32,11.11
"Germany","NorthRhineWestphalia","Leopoldshohe",16100,52.02,8.700000000000001
"Germany","Bavaria","Bruckmuhl",16099,47.89,11.92
"Germany","LowerSaxony","Wardenburg",15975,53.07,8.2
"Germany","BadenWurttemberg","Baiersbronn",14500,48.51,8.38
"Germany","Hesse","GinsheimGustavsburg",16036,49.97,8.35
"Germany","Bavaria","Lohr",16031,49.980000000000004,9.58
"Germany","NorthRhineWestphalia","Rahden",16019,52.43,8.61
"Germany","Saxony","Oschatz",14734,51.31,13.1
"Germany","Saxony","Grossenhain",18352,51.29,13.530000000000001
"Germany","Bavaria","Wendelstein",15958,49.35,11.15
"Germany","Bavaria","Freilassing",16194,47.84,12.99
"Germany","SchleswigHolstein","BadSegeberg",17176,53.94,10.3
"Germany","Bavaria","BadNeustadt",15154,50.33,10.21
"Germany","Hesse","Konigstein",15930,50.18,8.46
"Germany","NorthRhineWestphalia","Hovelhof",15918,51.82,8.64
"Germany","NorthRhineWestphalia","Erwitte",15895,51.620000000000005,8.34
"Germany","SchleswigHolstein","Preetz",15895,54.24,10.28
"Germany","NorthRhineWestphalia","Grefrath",15867,51.300000000000004,6.3100000000000005
"Germany","Hesse","Witzenhausen",14701,51.34,9.86
"Germany","Saarland","Beckingen",15819,49.4,6.7
"Germany","Saarland","RehlingenSiersburg",15805,49.38,6.68
"Germany","BadenWurttemberg","Wendlingen",15974,48.67,9.370000000000001
"Germany","BadenWurttemberg","Ebersbach",15206,48.730000000000004,9.53
"Germany","Brandenburg","Rudersdorf",15313,52.480000000000004,13.780000000000001
"Germany","LowerSaxony","Weener",15541,53.160000000000004,7.3500000000000005
"Germany","LowerSaxony","BadEssen",15759,52.32,8.32
"Germany","SchleswigHolstein","Ratekau",15750,53.95,10.73
"Germany","NorthRhineWestphalia","Olsberg",15728,51.36,8.49
"Germany","NorthRhineWestphalia","Odenthal",15718,51.04,7.11
"Germany","LowerSaxony","Hude",15715,53.120000000000005,8.46
"Germany","NorthRhineWestphalia","Simmerath",15669,50.61,6.3
"Germany","BadenWurttemberg","Freiberg",15661,48.94,9.200000000000001
"Germany","Bavaria","Kelheim",15656,48.93,11.86
"Germany","LowerSaxony","BadBentheim",15353,52.32,7.16
"Germany","Brandenburg","Wittstock",15650,53.17,12.48
"Germany","LowerSaxony","Uslar",15648,51.67,9.65
"Germany","SaxonyAnhalt","Bitterfeld",15376,51.620000000000005,12.31
"Germany","BadenWurttemberg","Marbach",15382,48.94,9.26
"Germany","NorthRhineWestphalia","Straelen",15568,51.46,6.26
"Germany","SaxonyAnhalt","Blankenburg",20509,51.800000000000004,10.950000000000001
"Germany","SaxonyAnhalt","Zerbst",15537,51.97,12.08
"Germany","Hesse","Burstadt",16176,49.65,8.46
"Germany","Bavaria","Altdorf",15419,49.39,11.34
"Germany","NorthRhineWestphalia","Niederkruchten",15390,51.21,6.21
"Germany","Saxony","Markranstadt",15119,51.300000000000004,12.23
"Germany","SaxonyAnhalt","Hettstedt",14495,51.65,11.5
"Germany","NorthRhineWestphalia","Spenge",15372,52.15,8.49
"Germany","NorthRhineWestphalia","BadLippspringe",15359,51.79,8.81
"Germany","BadenWurttemberg","Eberbach",15349,49.480000000000004,8.99
"Germany","BadenWurttemberg","EggensteinLeopoldshafen",15930,49.09,8.38
"Germany","Bavaria","Garching",15328,48.24,11.65
"Germany","Saarland","Ottweiler",15503,49.410000000000004,7.16
"Germany","NorthRhineWestphalia","Kalletal",15319,52.11,8.950000000000001
"Germany","BadenWurttemberg","Blaustein",15303,48.42,9.92
"Germany","Saarland","Riegelsberg",15301,49.300000000000004,6.93
"Germany","BadenWurttemberg","Kernen",15041,48.79,9.32
"Germany","LowerSaxony","Oyten",15582,53.050000000000004,9.01
"Germany","NorthRhineWestphalia","Drensteinfurt",15259,51.800000000000004,7.75
"Germany","Bavaria","Holzkirchen",15250,47.88,11.69
"Germany","BadenWurttemberg","Brackenheim",15220,49.08,9.07
"Germany","BadenWurttemberg","Trossingen",15223,48.08,8.63
"Germany","Hesse","OberRamstadt",15367,49.83,8.74
"Germany","Hesse","Dieburg",15168,49.910000000000004,8.84
"Germany","Brandenburg","Hoppegarten",15176,52.5167,13.6667
"Germany","Hesse","NeuAnspach",15276,50.32,8.5
"Germany","NorthRhineWestphalia","Much",15078,50.92,7.4
"Germany","Bavaria","Karlstadt",15070,49.97,9.77
"Germany","BadenWurttemberg","LaudaKonigshofen",14443,49.57,9.700000000000001
"Germany","Brandenburg","Angermunde",15453,53.03,13.99
"Germany","NorthRhineWestphalia","Ascheberg",15034,51.79,7.61
"Germany","BadenWurttemberg","Kunzelsau",14926,49.29,9.69
"Germany","NorthRhineWestphalia","BadLaasphe",14981,50.93,8.4
"Germany","Hesse","Freigericht",14419,50.14,9.120000000000001
"Germany","Bavaria","Regenstauf",16067,49.13,12.120000000000001
"Germany","BadenWurttemberg","Kraichtal",14576,49.15,8.73
"Germany","Bavaria","Pocking",14913,48.410000000000004,13.31
"Germany","SchleswigHolstein","Schwarzenbek",16261,53.51,10.48
"Germany","SaxonyAnhalt","Jessen",14878,51.78,12.950000000000001
"Germany","Bavaria","Ismaning",16770,48.22,11.68
"Germany","Hesse","Hainburg",14845,50.08,8.94
"Germany","LowerSaxony","ClausthalZellerfeld",15523,51.81,10.33
"Germany","NorthRhineWestphalia","Beverungen",14801,51.67,9.370000000000001
"Germany","LowerSaxony","Wiefelstede",16093,53.26,8.11
"Germany","NorthRhineWestphalia","Burbach",14770,50.75,8.08
"Germany","Bavaria","Stadtbergen",14758,48.370000000000005,10.85
"Germany","BadenWurttemberg","Walldorf",14997,49.31,8.64
"Germany","Hesse","Grundau",14737,50.25,9.15
"Germany","LowerSaxony","Langwedel",14394,52.97,9.21
"Germany","BadenWurttemberg","Schriesheim",14983,49.49,8.66
"Germany","LowerSaxony","Gehrden",14638,52.32,9.59
"Germany","Hesse","Fritzlar",14428,51.14,9.27
"Germany","Hesse","Homberg",14621,51.04,9.4
"Germany","BadenWurttemberg","Oberndorf",14615,48.29,8.56
"Germany","BadenWurttemberg","Gernsbach",13949,48.77,8.34
"Germany","BadenWurttemberg","Munsingen",14583,48.42,9.5
"Germany","Hesse","Niedernhausen",14573,50.17,8.32
"Germany","Hesse","Petersberg",14568,50.57,9.71
"Germany","Brandenburg","Lubben",13824,51.94,13.88
"Germany","BadenWurttemberg","Isny",13602,47.7,10.03
"Germany","LowerSaxony","Ritterhude",14598,53.19,8.74
"Germany","LowerSaxony","Herzberg",14532,51.660000000000004,10.33
"Germany","Hesse","Bebra",13789,50.97,9.8
"Germany","Hesse","Schwalbach",14517,50.160000000000004,8.53
"Germany","BadenWurttemberg","BadWurzach",14316,47.910000000000004,9.9
"Germany","BadenWurttemberg","Markgroningen",14555,48.9,9.08
"Germany","Brandenburg","Zehdenick",14478,52.99,13.34
"Germany","Saxony","Taucha",14470,51.38,12.48
"Germany","LowerSaxony","Bissendorf",14444,52.24,8.16
"Germany","NorthRhineWestphalia","Stemwede",14436,52.42,8.43
"Germany","BadenWurttemberg","Eppelheim",14436,49.410000000000004,8.63
"Germany","MecklenburgWesternPomerania","Bergen",13612,54.42,13.43
"Germany","SchleswigHolstein","Bargteheide",14417,53.74,10.26
"Germany","BadenWurttemberg","Breisach",15315,48.04,7.58
"Germany","NorthRhineWestphalia","Sassenberg",14403,52.01,8.040000000000001
"Germany","Hesse","BadCamberg",14047,50.31,8.26
"Germany","BadenWurttemberg","Bruhl",14363,49.410000000000004,8.53
"Germany","Hesse","Lauterbach",14119,50.64,9.39
"Germany","Bavaria","Immenstadt",14191,47.57,10.21
"Germany","NorthRhineWestphalia","Winterberg",14325,51.2,8.53
"Germany","BadenWurttemberg","Plochingen",13997,48.72,9.42
"Germany","NorthRhineWestphalia","Reken",14532,51.78,7.03
"Germany","BadenWurttemberg","Malsch",14311,48.89,8.34
"Germany","Saarland","SpiesenElversberg",13147,49.32,7.15
"Germany","BadenWurttemberg","Sandhausen",14672,49.35,8.65
"Germany","NorthRhineWestphalia","Niederzier",14265,50.88,6.46
"Germany","BadenWurttemberg","Murrhardt",14331,48.99,9.57
"Germany","Saarland","Quierschied",14233,49.32,7.05
"Germany","Hesse","Raunheim",14215,50.01,8.46
"Germany","LowerSaxony","BadSalzdetfurth",13281,52.050000000000004,10.
"Germany","NorthRhineWestphalia","Aldenhoven",14200,50.910000000000004,6.2700000000000005
"Germany","Hesse","Munster",14182,49.93,8.86
"Germany","LowerSaxony","Hagen",14179,52.21,7.97
"Germany","SaxonyAnhalt","Genthin",14610,52.4,12.16
"Germany","BadenWurttemberg","Langenau",14163,48.5,10.120000000000001
"Germany","Hesse","Grunberg",14136,50.6,8.950000000000001
"Germany","LowerSaxony","Wennigsen",14134,52.28,9.57
"Germany","Bavaria","Mindelheim",14118,48.050000000000004,10.49
"Germany","BadenWurttemberg","Neckargemund",13369,49.38,8.790000000000001
"Germany","MecklenburgWesternPomerania","Anklam",14092,53.85,13.69
"Germany","Bavaria","Fussen",15265,47.58,10.700000000000001
"Germany","NorthRhineWestphalia","Langerwehe",14059,50.82,6.3500000000000005
"Germany","NorthRhineWestphalia","Kalkar",14058,51.74,6.29
"Germany","Bavaria","Eckental",14046,49.58,11.21
"Germany","BadenWurttemberg","EdingenNeckarhausen",13709,49.45,8.620000000000001
"Germany","NorthRhineWestphalia","Neuenkirchen",14009,52.26,7.37
"Germany","Saxony","Marienberg",14005,50.65,13.16
"Germany","Hesse","Rotenburg",13984,51.01,9.73
"Germany","Bavaria","BadWorishofen",13984,48.01,10.6
"Germany","Bavaria","Pegnitz",13356,49.76,11.540000000000001
"Germany","NorthRhineWestphalia","Neunkirchen",13969,50.79,8.01
"Germany","LowerSaxony","Schiffdorf",13962,53.54,8.65
"Germany","Hesse","Muhltal",13260,49.83,8.700000000000001
"Germany","Hesse","Lohfelden",13928,51.28,9.540000000000001
"Germany","LowerSaxony","Jever",14201,53.58333,7.9
"Germany","Bavaria","Stein",13901,49.42,11.02
"Germany","SaxonyAnhalt","Rosslau",13900,51.9,12.24
"Germany","LowerSaxony","Belm",13594,52.300000000000004,8.13
"Germany","Bavaria","Mainburg",14855,48.65,11.78
"Germany","LowerSaxony","Pattensen",13882,52.27,9.76
"Germany","BadenWurttemberg","Obersulm",13478,49.14,9.4
"Germany","Hesse","Asslar",13772,50.61,8.46
"Germany","Hesse","GrossZimmern",13856,49.88,8.83
"Germany","BadenWurttemberg","Uhingen",13963,48.72,9.58
"Germany","Hesse","Melsungen",13381,51.14,9.55
"Germany","SchleswigHolstein","Ratzeburg",14230,53.69,10.78
"Germany","Saxony","Wilsdruff",13942,51.050000000000004,13.530000000000001
"Germany","NorthRhineWestphalia","Schleiden",13773,50.54,6.48
"Germany","NorthRhineWestphalia","Marienheide",13752,51.09,7.53
"Germany","Hesse","BadSodenSalmunster",13953,50.29,9.36
"Germany","Thuringia","Leinefelde",13740,51.39,10.32
"Germany","Bavaria","Eichstatt",13721,48.89,11.200000000000001
"Germany","NorthRhineWestphalia","Linnich",12446,50.99,6.26
"Germany","NorthRhineWestphalia","Hunxe",13719,51.65,6.7700000000000005
"Germany","Saarland","Saarwellingen",13315,49.36,6.8
"Germany","SchleswigHolstein","Rellingen",13717,53.65,9.81
"Germany","Bavaria","Neubiberg",13480,48.09,11.67
"Germany","LowerSaxony","Grossenkneten",15276,52.95,8.27
"Germany","LowerSaxony","Hatten",14084,53.050000000000004,8.38
"Germany","Hesse","Solms",13693,50.77,9.6
"Germany","Hesse","Kelsterbach",13664,50.07,8.53
"Germany","LowerSaxony","Bovenden",13568,51.59,9.93
"Germany","NorthRhineWestphalia","Steinheim",12757,51.86,9.1
"Germany","NorthRhineWestphalia","Schermbeck",13636,51.69,6.86
"Germany","BadenWurttemberg","GrenzachWyhlen",14073,47.56,7.66
"Germany","NorthRhineWestphalia","Hullhorst",13629,52.28,8.67
"Germany","Bavaria","Rodental",13625,50.300000000000004,11.040000000000001
"Germany","Hesse","Weilburg",13337,50.49,8.27
"Germany","SchleswigHolstein","Brunsbuttel",13620,53.9,9.13
"Germany","Hesse","Erbach",13608,49.660000000000004,8.98
"Germany","Hesse","Biedenkopf",13685,50.92,8.52
"Germany","NorthRhineWestphalia","Lotte",13848,52.29,7.91
"Germany","BadenWurttemberg","SanktGeorgen",13572,48.14,8.32
"Germany","SchleswigHolstein","BadBramstedt",13906,53.92,9.870000000000001
"Germany","BadenWurttemberg","Remshalden",13630,48.82,9.41
"Germany","Bavaria","Hassfurt",13502,50.050000000000004,10.5
"Germany","NorthRhineWestphalia","Borchen",13144,51.67,8.74
"Germany","Brandenburg","Stahnsdorf",14245,52.38,13.22
"Germany","SchleswigHolstein","Wentorf",13477,53.68,10.47
"Germany","LowerSaxony","Fallingbostel",11413,52.870000000000005,9.700000000000001
"Germany","Hesse","Lich",13290,50.53,8.82
"Germany","BadenWurttemberg","Denzlingen",13457,48.07,7.88
"Germany","LowerSaxony","Bergen",13445,52.82,9.96
"Germany","Bavaria","Hochstadt",13430,49.7,10.790000000000001
"Germany","Bavaria","Dorfen",14407,48.28,12.15
"Germany","Hesse","Borken",12633,51.06,9.28
"Germany","SaxonyAnhalt","Thale",17639,51.75,11.040000000000001
"Germany","NorthRhineWestphalia","Sendenhorst",13218,51.84,7.83
"Germany","Saxony","Lichtenstein",11632,50.76,12.63
"Germany","Brandenburg","Petershagen",13356,52.51,13.780000000000001
"Germany","Thuringia","Possneck",12148,50.7,11.6
"Germany","Hesse","Eppstein",13626,50.14,8.39
"Germany","Bavaria","Hosbach",13337,50.,9.19
"Germany","Hesse","Usingen",13328,50.34,8.53
"Germany","BadenWurttemberg","Erbach",13325,48.34,9.870000000000001
"Germany","LowerSaxony","Bohmte",12634,52.370000000000005,8.31
"Germany","Bavaria","Feucht",13491,49.38,11.21
"Germany","NorthRhineWestphalia","PreussischOldendorf",13288,52.300000000000004,8.5
"Germany","BadenWurttemberg","Meckenbeuren",13270,47.7,9.56
"Germany","LowerSaxony","Tostedt",13269,53.29,9.71
"Germany","BadenWurttemberg","Tauberbischofsheim",13260,49.63,9.65
"Germany","Hesse","Buseck",13257,50.620000000000005,8.74
"Germany","Brandenburg","Pritzwalk",13252,53.15,12.17
"Germany","RheinlandPalatinate","Grunstadt",13249,49.57,8.16
"Germany","LowerSaxony","Rosengarten",13246,53.35,9.88
"Germany","Bavaria","Schwabmunchen",13229,48.19,10.76
"Germany","LowerSaxony","Grossefehn",13927,53.4,7.55
"Germany","LowerSaxony","Loningen",13221,52.74,7.75
"Germany","Bavaria","Weissenhorn",13217,48.300000000000004,10.17
"Germany","LowerSaxony","Wiesmoor",13116,53.42,7.73
"Germany","Brandenburg","MuhlenbeckerLand",13213,52.6736,13.3616
"Germany","Bavaria","Hilpoltstein",13209,49.19,11.18
"Germany","BadenWurttemberg","Pfullendorf",13077,47.93,9.25
"Germany","BadenWurttemberg","Herbrechtingen",12915,48.63,10.17
"Germany","Hesse","Wolfhagen",12856,51.34,9.18
"Germany","Hesse","Buttelborn",13125,49.910000000000004,8.51
"Germany","Bavaria","Treuchtlingen",12781,48.96,10.91
"Germany","NorthRhineWestphalia","Wadersloh",12443,51.74,8.24
"Germany","Saarland","Tholey",13076,49.49,7.0600000000000005
"Germany","Brandenburg","Juterbog",12270,52.,13.06
"Germany","LowerSaxony","Lengede",13070,52.2,10.3
"Germany","Bavaria","Vohringen",13057,48.28,10.08
"Germany","LowerSaxony","Krummhorn",12209,53.42,7.07
"Germany","Bavaria","Eching",13052,48.29,11.59
"Germany","Hesse","HessischLichtenau",12100,51.2,9.71
"Germany","Hesse","Langenselbold",13049,50.19,9.03
"Germany","LowerSaxony","Nordstemmen",12119,52.17,9.78
"Germany","Brandenburg","Perleberg",13102,53.08,11.86
"Germany","Hesse","Trebur",13028,49.92,8.39
"Germany","NorthRhineWestphalia","BedburgHau",13033,51.77,6.18
"Germany","NorthRhineWestphalia","Velen",13192,51.9,6.98
"Germany","LowerSaxony","Zeven",13797,53.300000000000004,9.28
"Germany","BadenWurttemberg","Wehr",12591,47.63,7.91
"Germany","BadenWurttemberg","Asperg",13315,48.92,9.14
"Germany","SchleswigHolstein","Tornesch",12970,53.7,9.71
"Germany","LowerSaxony","Langelsheim",11684,51.94,10.33
"Germany","RheinlandPalatinate","Bitburg",12942,49.980000000000004,6.5200000000000005
"Germany","BadenWurttemberg","Ostringen",12627,49.22,8.71
"Germany","SchleswigHolstein","Fehmarn",12467,54.4375,11.1969
"Germany","NorthRhineWestphalia","Alpen",12622,51.59,6.51
"Germany","NorthRhineWestphalia","Monschau",11841,50.56,6.24
"Germany","Bavaria","Lappersdorf",12909,49.050000000000004,12.1
"Germany","Bavaria","NeustadtNiederbayern",12899,48.81,11.77
"Germany","NorthRhineWestphalia","Kerken",12889,51.44,6.4
"Germany","LowerSaxony","Scheessel",13031,53.17,9.47
"Germany","SchleswigHolstein","Plon",12869,54.17,10.42
"Germany","LowerSaxony","Saterland",12869,53.14,7.66
"Germany","BadenWurttemberg","Burladingen",12133,48.29,9.11
"Germany","Bavaria","Grafelfing",13816,48.120000000000005,11.44
"Germany","LowerSaxony","Sulingen",12862,52.69,8.790000000000001
"Germany","BadenWurttemberg","UbstadtWeiher",12966,49.160000000000004,8.63
"Germany","LowerSaxony","WinsenLuneburg",12838,52.68,9.91
"Germany","BadenWurttemberg","Ketsch",12619,49.370000000000005,8.52
"Germany","Saarland","Kleinblittersdorf",12837,49.15,7.04
"Germany","BadenWurttemberg","BadDurrheim",12775,48.03,8.52
"Germany","NorthRhineWestphalia","Ense",12827,51.49,7.99
"Germany","Bavaria","Landau",12826,48.68,12.69
"Germany","Hesse","Kaufungen",12414,51.28,9.620000000000001
"Germany","MecklenburgWesternPomerania","Ludwigslust",12815,53.33,11.48
"Germany","LowerSaxony","Quakenbruck",13090,52.68,7.95
"Germany","Bavaria","Mering",12804,48.27,10.99
"Germany","Hesse","Hungen",12794,50.47,8.89
"Germany","LowerSaxony","Cremlingen",12789,52.25,10.64
"Germany","NorthRhineWestphalia","Welver",12048,51.620000000000005,7.96
"Germany","Bavaria","Altotting",12755,48.230000000000004,12.68
"Germany","Brandenburg","BadFreienwalde",13075,52.79,14.030000000000001
"Germany","Hesse","Lorsch",13515,49.65,8.56
"Germany","Saxony","Bischofswerda",11573,51.14,14.18
"Germany","Bavaria","Eggenfelden",12731,48.410000000000004,12.76
"Germany","LowerSaxony","Garrel",14698,52.95,8.01
"Germany","LowerSaxony","Schoningen",12719,52.14,10.950000000000001
"Germany","NorthRhineWestphalia","Kirchhundem",12719,51.09,8.09
"Germany","Bavaria","Maisach",12697,48.22,11.26
"Germany","LowerSaxony","Haselunne",12728,52.67,7.47
"Germany","Saxony","Oelsnitz",12686,50.42,12.16
"Germany","BadenWurttemberg","Markdorf",13515,47.72,9.4
"Germany","LowerSaxony","Edemissen",12676,52.39,10.26
"Germany","LowerSaxony","Dinklage",12665,52.65,8.11
"Germany","SaxonyAnhalt","Querfurt",12659,51.38,11.6
"Germany","NorthRhineWestphalia","Rommerskirchen",12658,51.04,6.68
"Germany","Hesse","Erlensee",14005,50.17,9.
"Germany","NorthRhineWestphalia","Extertal",12638,52.09,9.09
"Germany","MecklenburgWesternPomerania","Demmin",12633,53.910000000000004,13.040000000000001
"Germany","BadenWurttemberg","Friesenheim",12621,48.373056,7.883333
"Germany","LowerSaxony","Ihlow",12315,53.410000000000004,7.37
"Germany","Bavaria","Poing",12601,48.17,11.81
"Germany","Bavaria","Neutraubling",12583,48.99,12.200000000000001
"Germany","NorthRhineWestphalia","Lippetal",11866,51.660000000000004,8.14
"Germany","Bavaria","Plattling",12568,48.79,12.86
"Germany","BadenWurttemberg","BadUrach",11910,48.5,9.4
"Germany","Bavaria","Krumbach",12561,48.25,10.36
"Germany","Bavaria","Abensberg",12561,48.82,11.85
"Germany","Brandenburg","FredersdorfVogelsdorf",12549,52.53,13.75
"Germany","Hesse","Wettenberg",12546,50.660000000000004,8.58
"Germany","Bavaria","Grafing",12543,48.050000000000004,11.96
"Germany","BadenWurttemberg","Philippsburg",12664,49.24,8.45
"Germany","RheinlandPalatinate","Montabaur",12537,50.44,7.83
"Germany","Saxony","Mulsen",12527,50.75,12.57
"Germany","Bavaria","Peissenberg",12524,47.81,11.07
"Germany","BadenWurttemberg","Gaildorf",12084,49.,9.77
"Germany","BadenWurttemberg","Sulz",12511,48.370000000000005,8.63
"Germany","LowerSaxony","Twistringen",12505,52.800000000000004,8.64
"Germany","Saarland","Mettlach",12209,49.49,6.6000000000000005
"Germany","BadenWurttemberg","Bopfingen",11787,48.870000000000005,10.35
"Germany","NorthRhineWestphalia","BadWunnenberg",12112,51.52,8.700000000000001
"Germany","BadenWurttemberg","SanktLeonRot",13403,49.27,8.6
"Germany","LowerSaxony","Barssel",12872,53.17,7.74
"Germany","RheinlandPalatinate","Mutterstadt",12636,49.46,8.35
"Germany","Bavaria","NeustadtMittelfranken",12448,49.59,10.620000000000001
"Germany","Hesse","Gladenbach",12447,50.77,8.56
"Germany","Bavaria","Hersbruck",12447,49.52,11.43
"Germany","BadenWurttemberg","Spaichingen",12520,48.08,8.73
"Germany","SchleswigHolstein","Barsbuttel",12401,53.57,10.17
"Germany","Thuringia","Schmolln",12395,50.910000000000004,12.36
"Germany","Saxony","Stollberg",12391,50.72,12.77
"Germany","LowerSaxony","Harsefeld",13133,53.45,9.5
"Germany","Bavaria","Oberhaching",12377,48.03,11.59
"Germany","Hesse","Wachtersbach",12261,50.27,9.3
"Germany","Hesse","Bischofsheim",12365,49.99,8.35
"Germany","MecklenburgWesternPomerania","Wolgast",12312,54.050000000000004,13.76
"Germany","Brandenburg","Schonefeld",12354,52.38,13.52
"Germany","NorthRhineWestphalia","Wickede",12347,51.5,7.86
"Germany","Bavaria","Schongau",12343,47.82,10.89
"Germany","BadenWurttemberg","Waldbronn",12251,48.92,8.48
"Germany","Bavaria","Burglengenfeld",12340,49.21,12.040000000000001
"Germany","Bavaria","Wasserburg",12846,48.06,12.200000000000001
"Germany","BadenWurttemberg","Wernau",12376,48.7,9.42
"Germany","NorthRhineWestphalia","Neuenrade",12325,51.29,7.78
"Germany","NorthRhineWestphalia","Olfen",12307,51.71,7.4
"Germany","Hesse","Hadamar",12305,50.46,8.4
"Germany","Bavaria","Hauzenberg",12294,48.65,13.620000000000001
"Germany","NorthRhineWestphalia","Drolshagen",12293,51.02,7.7700000000000005
"Germany","BadenWurttemberg","Hemsbach",12285,49.6,8.64
"Germany","NorthRhineWestphalia","Mettingen",11815,52.32,7.78
"Germany","Saxony","OelsnitzChemnitz",12268,50.74,12.71
"Germany","Brandenburg","Beelitz",11898,52.230000000000004,12.97
"Germany","Bavaria","Feuchtwangen",12254,49.17,10.33
"Germany","BadenWurttemberg","Holzgerlingen",12635,48.64,9.01
"Germany","Thuringia","Hildburghausen",12245,50.43,10.73
"Germany","Bavaria","Mombris",12243,50.07,9.16
"Germany","LowerSaxony","Drochtersen",11150,53.7,9.38
"Germany","BadenWurttemberg","BadSchonborn",12896,49.22,8.65
"Germany","BadenWurttemberg","Bretzfeld",12307,49.18,9.44
"Germany","MecklenburgWesternPomerania","Hagenow",11697,53.44,11.19
"Germany","Hesse","Linden",12172,50.52,8.64
"Germany","LowerSaxony","Ilsede",21514,52.26,10.22
"Germany","BadenWurttemberg","Tamm",12605,48.92,9.11
"Germany","Hesse","Rossdorf",12155,49.870000000000005,8.74
"Germany","BadenWurttemberg","NiefernOschelbronn",11830,48.92,8.78
"Germany","BadenWurttemberg","Durmersheim",12148,48.94,8.27
"Germany","LowerSaxony","Harsum",11428,52.22,9.96
"Germany","Bavaria","Regen",10655,48.980000000000004,13.120000000000001
"Germany","Hesse","Langgons",12132,50.49,8.67
"Germany","NorthRhineWestphalia","Balve",11602,51.34,7.86
"Germany","LowerSaxony","Wittingen",12124,52.730000000000004,10.73
"Germany","NorthRhineWestphalia","Issum",12118,51.54,6.42
"Germany","BadenWurttemberg","Ettenheim",12615,48.26,7.82
"Germany","Thuringia","ZellaMehlis",10631,50.65,10.68
"Germany","Bavaria","Kirchheim",12094,48.18,11.76
"Germany","LowerSaxony","Ottersberg",12084,53.1,9.15
"Germany","Bavaria","BadWindsheim",12061,49.51,10.42
"Germany","Bavaria","Buchloe",12052,48.050000000000004,10.72
"Germany","Bavaria","Murnau",12184,47.69,11.200000000000001
"Germany","Brandenburg","Schoneiche",12047,52.480000000000004,13.700000000000001
"Germany","Hesse","Altenstadt",12041,50.29,8.94
"Germany","Bavaria","Rothenbach",12041,49.49,11.24
"Germany","Saxony","Burgstadt",12037,50.92,12.81
"Germany","Hesse","Fuldatal",12035,51.39,9.57
"Germany","BadenWurttemberg","Gartringen",11754,48.65,8.9
"Germany","BadenWurttemberg","Gerstetten",11601,48.64,10.03
"Germany","Hesse","Dautphetal",11584,50.86,8.540000000000001
"Germany","NorthRhineWestphalia","Kall",11229,50.54,6.5600000000000005
"Germany","LowerSaxony","Rosdorf",11762,51.51,9.89
"Germany","BadenWurttemberg","Neuenburg",11984,47.82,7.5600000000000005
"Germany","LowerSaxony","Jork",11950,53.54,9.67
"Germany","Saarland","Uberherrn",11939,49.25,6.69
"Germany","BadenWurttemberg","Walldurn",11285,49.59,9.36
"Germany","BadenWurttemberg","RielasingenWorblingen",11719,47.730000000000004,8.84
"Germany","BadenWurttemberg","TitiseeNeustadt",11908,47.9,8.17
"Germany","Hesse","Rosbach",12167,50.300000000000004,8.72
"Germany","Bavaria","Osterhofen",11894,48.71,13.02
"Germany","NorthRhineWestphalia","Havixbeck",11689,51.99,7.41
"Germany","BadenWurttemberg","Blaubeuren",12087,48.410000000000004,9.78
"Germany","SchleswigHolstein","Scharbeutz",10908,54.04,10.74
"Germany","Hesse","OestrichWinkel",11632,50.,8.
"Germany","BadenWurttemberg","Besigheim",11951,49.01,9.14
"Germany","MecklenburgWesternPomerania","Pasewalk",10403,53.51,13.99
"Germany","BadenWurttemberg","Dossenheim",12504,49.45,8.68
"Germany","BadenWurttemberg","Steinheim",11841,48.97,9.28
"Germany","Bavaria","Peiting",11820,47.800000000000004,10.92
"Germany","BadenWurttemberg","Teningen",11596,48.14,7.8100000000000005
"Germany","LowerSaxony","Zetel",11684,53.42,7.98
"Germany","NorthRhineWestphalia","Recke",11363,52.38,7.71
"Germany","Bavaria","Hammelburg",11135,50.13,9.88
"Germany","SchleswigHolstein","Kronshagen",11776,54.34,10.08
"Germany","BadenWurttemberg","Remchingen",11673,48.94,8.58
"Germany","BadenWurttemberg","LinkenheimHochstetten",11693,49.120000000000005,8.41
"Germany","LowerSaxony","Lehre",12249,52.34,10.66
"Germany","SchleswigHolstein","Gluckstadt",11743,53.79,9.41
"Germany","Bavaria","Pfarrkirchen",11739,48.44,12.93
"Germany","Hesse","Geisenheim",11733,49.99,7.96
"Germany","LowerSaxony","Aerzen",10617,52.04,9.26
"Germany","NorthRhineWestphalia","Bestwig",11170,51.370000000000005,8.4
"Germany","BadenWurttemberg","Rudersberg",11113,48.89,9.52
"Germany","Bavaria","Trostberg",11701,48.03,12.55
"Germany","BadenWurttemberg","Ammerbuch",11254,48.550000000000004,8.96
"Germany","Brandenburg","Erkner",11580,52.42,13.74
"Germany","LowerSaxony","BadFallingbostel",11413,52.8675,9.69667
"Germany","Brandenburg","Belzig",11120,52.13,12.6
"Germany","BadenWurttemberg","Weinsberg",11615,49.15,9.28
"Germany","BadenWurttemberg","GrabenNeudorf",11571,49.160000000000004,8.49
"Germany","Hesse","Schoneck",11660,50.2,8.85
"Germany","Bavaria","Eichenau",11652,48.18,11.32
"Germany","Saarland","Mandelbachtal",10978,49.2,7.15
"Germany","NorthRhineWestphalia","Gangelt",12015,51.,6.
"Germany","LowerSaxony","BadLauterberg",10548,51.65,10.48
"Germany","NorthRhineWestphalia","BadSassendorf",11627,51.59,8.16
"Germany","Saxony","Zwonitz",11623,50.64,12.8
"Germany","NorthRhineWestphalia","Schalksmuhle",11611,51.24,7.5200000000000005
"Germany","BadenWurttemberg","Heddesheim",11199,49.52,8.61
"Germany","Bavaria","Hirschaid",12193,49.82,10.98
"Germany","Saxony","WilkauHasslau",11595,50.67,12.51
"Germany","SchleswigHolstein","Lauenburg",11398,53.38,10.56
"Germany","Bavaria","Dinkelsbuhl",11389,49.08,10.32
"Germany","LowerSaxony","Schuttorf",12676,52.32,7.23
"Germany","Brandenburg","KlosterLehnin",11566,52.3203,12.7433
"Germany","BadenWurttemberg","Gundelfingen",11345,48.050000000000004,7.86
"Germany","Bavaria","Ergolding",11554,48.58,12.17
"Germany","Bavaria","Vilsbiburg",11550,48.46,12.35
"Germany","NorthRhineWestphalia","Billerbeck",11543,51.97,7.29
"Germany","NorthRhineWestphalia","Werther",11535,52.07,8.41
"Germany","LowerSaxony","BadIburg",10630,52.15,8.05
"Germany","SaxonyAnhalt","Gardelegen",23148,52.53,11.39
"Germany","Bavaria","Roding",11706,49.2,12.5
"Germany","NorthRhineWestphalia","Morsbach",11478,50.870000000000005,7.75
"Germany","BadenWurttemberg","Neuhausen",11462,48.69,9.27
"Germany","LowerSaxony","Uplengen",11783,53.28,7.75
"Germany","NorthRhineWestphalia","Mohnesee",11608,51.5,8.09
"Germany","BadenWurttemberg","Ladenburg",11380,49.47,8.6
"Germany","Hesse","WaldMichelbach",10614,49.56,8.83
"Germany","Bavaria","Lindenberg",11422,47.59,9.85
"Germany","Brandenburg","Velten",11419,52.69,13.18
"Germany","Thuringia","Eisenberg",13669,50.97,11.89
"Germany","NorthRhineWestphalia","Norvenich",11390,50.81,6.65
"Germany","Bavaria","Oberschleissheim",11387,48.26,11.55
"Germany","Bavaria","Ochsenfurt",11155,49.67,10.06
"Germany","LowerSaxony","Emstek",11859,52.83,8.15
"Germany","MecklenburgWesternPomerania","BadDoberan",11375,54.11,11.9
"Germany","Bavaria","Schwarzenbach",11375,50.230000000000004,11.93
"Germany","Bavaria","Burgthann",11373,49.35,11.3
"Germany","Bavaria","AltdorfNiederbayern",11355,48.15,12.18
"Germany","SchleswigHolstein","Harrislee",11483,54.800000000000004,9.370000000000001
"Germany","Brandenburg","Michendorf",11350,52.300000000000004,13.02
"Germany","NorthRhineWestphalia","Westerkappeln",11349,52.32,7.88
"Germany","Bavaria","Raubling",11346,47.79,12.1
"Germany","Hesse","Schotten",11325,50.51,9.13
"Germany","Hesse","Rodenbach",11312,50.14,9.02
"Germany","LowerSaxony","Geeste",11310,52.6,7.26
"Germany","SaxonyAnhalt","BadDurrenberg",11763,51.300000000000004,12.06
"Germany","NorthRhineWestphalia","Isselburg",10736,51.84,6.46
"Germany","Bavaria","Manching",11260,48.72,11.5
"Germany","Bavaria","Kissing",11253,48.300000000000004,10.98
"Germany","Bavaria","Munchberg",11249,50.2,11.78
"Germany","Saarland","Friedrichsthal",11249,49.33,7.1000000000000005
"Germany","Saxony","Zschopau",11247,50.75,13.07
"Germany","Hesse","Neuhof",11243,50.44,9.61
"Germany","Hesse","Braunfels",11510,50.52,8.4
"Germany","BadenWurttemberg","Altensteig",11234,48.58,8.61
"Germany","Bavaria","Rothenburg",11226,49.38,10.18
"Germany","BadenWurttemberg","Sinzheim",11021,48.77,8.17
"Germany","BadenWurttemberg","Salem",11216,47.78,9.28
"Germany","SaxonyAnhalt","Braunsbedra",11205,51.300000000000004,11.9
"Germany","BadenWurttemberg","Lorch",10607,48.800000000000004,9.68
"Germany","NorthRhineWestphalia","Lichtenau",11174,51.620000000000005,8.9
"Germany","SaxonyAnhalt","Gommern",11174,52.07,11.83
"Germany","Saarland","Marpingen",11172,49.45,7.05
"Germany","BadenWurttemberg","Welzheim",11171,48.88,9.63
"Germany","LowerSaxony","Hasbergen",11159,52.24,7.92
"Germany","Hesse","Steinau",11156,50.32,9.450000000000001
"Germany","Bavaria","Miesbach",11149,47.79,11.83
"Germany","Brandenburg","Grossraschen",11148,51.59,14.
"Germany","Saxony","Floha",11183,50.870000000000005,13.07
"Germany","LowerSaxony","Wietmarschen",12019,52.53,7.13
"Germany","BadenWurttemberg","Gengenbach",10730,48.410000000000004,8.01
"Germany","Bavaria","Ebersberg",11116,48.08,11.97
"Germany","LowerSaxony","Vienenburg",11115,51.95,10.56
"Germany","Bavaria","MarktSchwaben",11115,48.2,11.88
"Germany","Hesse","Eichenzell",11112,50.49,9.69
"Germany","Thuringia","Waltershausen",13092,50.9,10.56
"Germany","Saxony","BrandErbisdorf",11087,50.88,13.32
"Germany","Bavaria","Meitingen",11086,48.550000000000004,10.85
"Germany","BadenWurttemberg","Rheinau",11073,48.870000000000005,8.2
"Germany","NorthRhineWestphalia","Raesfeld",11070,51.77,6.8500000000000005
"Germany","Bavaria","Gemunden",11067,50.050000000000004,9.700000000000001
"Germany","BadenWurttemberg","Schwaigern",11065,49.160000000000004,9.06
"Germany","RheinlandPalatinate","Morbach",10531,49.81,7.12
"Germany","BadenWurttemberg","Lauffen",11051,49.08,9.15
"Germany","RheinlandPalatinate","Grafschaft",11050,50.58,7.07
"Germany","LowerSaxony","Sassenburg",11480,52.52,10.63
"Germany","Bavaria","BadAbbach",11038,48.93,12.05
"Germany","MecklenburgWesternPomerania","Grimmen",10019,54.11,13.030000000000001
"Germany","Hesse","BadSchwalbach",10676,50.14,8.06
"Germany","LowerSaxony","Bockenem",9741,52.02,10.13
"Germany","Bavaria","Essenbach",11027,48.620000000000005,12.21
"Germany","Hesse","Furth",10465,49.65,8.78
"Germany","NorthRhineWestphalia","Ruthen",11019,51.49,8.44
"Germany","BadenWurttemberg","Donzdorf",10737,48.69,9.8
"Germany","BadenWurttemberg","Schwieberdingen",11010,48.88,9.07
"Germany","BadenWurttemberg","Laichingen",11008,48.5,9.68
"Germany","MecklenburgWesternPomerania","Ueckermunde",8696,53.74,14.02
"Germany","LowerSaxony","Apen",11447,53.22,7.8
"Germany","LowerSaxony","Stelle",10989,53.39,10.11
"Germany","Bavaria","Gaimersheim",10988,48.82,11.370000000000001
"Germany","Bavaria","Marktheidenfeld",10976,49.85,9.6
"Germany","Bavaria","Lauingen",10974,48.57,10.43
"Germany","Bavaria","Wolnzach",10959,48.61,11.620000000000001
"Germany","LowerSaxony","Emmerthal",9882,52.050000000000004,9.38
"Germany","Bavaria","Grunwald",11086,48.050000000000004,11.540000000000001
"Germany","MecklenburgWesternPomerania","Grevesmuhlen",10496,53.870000000000005,11.18
"Germany","Hesse","Felsberg",10624,51.14,9.41
"Germany","NorthRhineWestphalia","Rosendahl",10712,51.77,7.95
"Germany","BadenWurttemberg","Eningen",10936,48.49,9.25
"Germany","NorthRhineWestphalia","Lugde",10928,51.95,9.25
"Germany","LowerSaxony","Dassel",9860,51.800000000000004,9.68
"Germany","RheinlandPalatinate","Diez",10910,50.370000000000005,8.01
"Germany","RheinlandPalatinate","Limburgerhof",10890,49.43,8.38
"Germany","BadenWurttemberg","BadWildbad",9876,48.76,8.55
"Germany","SchleswigHolstein","Malente",10876,54.18,10.56
"Germany","SaxonyAnhalt","Calbe",8991,51.910000000000004,11.76
"Germany","BadenWurttemberg","Haigerloch",10444,48.370000000000005,8.790000000000001
"Germany","NorthRhineWestphalia","Ruppichteroth",10853,50.85,7.48
"Germany","BadenWurttemberg","Messstetten",10833,48.19,8.96
"Germany","LowerSaxony","RehburgLoccum",10219,52.47,9.22
"Germany","LowerSaxony","BadGandersheim",9858,51.870000000000005,10.03
"Germany","Brandenburg","Oberkramer",10812,52.68,13.05
"Germany","NorthRhineWestphalia","Nideggen",10809,50.71,6.48
"Germany","NorthRhineWestphalia","Anrochte",10798,51.57,8.33
"Germany","Brandenburg","Herzberg",10792,51.69,13.22
"Germany","Saxony","Bannewitz",10851,51.,13.73
"Germany","BadenWurttemberg","Nussloch",10768,49.34,8.700000000000001
"Germany","Saxony","Niesky",9543,51.31,14.81
"Germany","MecklenburgWesternPomerania","Boizenburg",10254,53.38,10.73
"Germany","BadenWurttemberg","Leutenbach",11095,48.9,9.39
"Germany","MecklenburgWesternPomerania","Sassnitz",9560,54.52,13.61
"Germany","BadenWurttemberg","Straubenhardt",10829,48.84,8.56
"Germany","Saarland","Merchweiler",10721,49.36,7.05
"Germany","Saxony","Olbernhau",10716,50.67,13.33
"Germany","Hesse","Reiskirchen",10714,50.6,8.83
"Germany","Hesse","Eschenburg",10710,50.81,8.290000000000001
"Germany","LowerSaxony","Ostrhauderfehn",11086,53.13,7.62
"Germany","RheinlandPalatinate","MulheimKarlich",10670,50.39,7.5
"Germany","NorthRhineWestphalia","Ostbevern",10873,52.050000000000004,7.8500000000000005
"Germany","MecklenburgWesternPomerania","Torgelow",9371,53.64,14.
"Germany","RheinlandPalatinate","BohlIggelheim",10653,49.39,8.3
"Germany","Bavaria","BadStaffelstein",10231,50.11,10.98
"Germany","BadenWurttemberg","Leingarten",11187,49.15,9.120000000000001
"Germany","Bavaria","Burgkirchen",10616,48.17,12.73
"Germany","Bavaria","Planegg",10459,48.11,11.43
"Germany","Bavaria","Werneck",10607,49.99,10.1
"Germany","Bavaria","Langenzenn",10601,49.5,10.790000000000001
"Germany","Brandenburg","Brieselang",10598,52.58,13.
"Germany","LowerSaxony","Friedeburg",10225,53.45,7.83
"Germany","Brandenburg","BadLiebenwerda",9305,51.52,13.4
"Germany","Saxony","Dippoldiswalde",14390,50.88,13.67
"Germany","Hesse","Niestetal",10431,51.31667,9.56667
"Germany","LowerSaxony","Visselhovede",10567,52.99,9.59
"Germany","LowerSaxony","Lahstedt",10563,52.25,10.25
"Germany","Hesse","Huttenberg",10562,50.5,8.61
"Germany","BadenWurttemberg","Birkenfeld",10158,48.870000000000005,8.63
"Germany","Saxony","Neustadt",10528,51.04,14.22
"Germany","Hesse","Kriftel",10527,50.09,8.47
"Germany","Bavaria","Waldkirchen",10516,48.730000000000004,13.59
"Germany","BadenWurttemberg","Oberderdingen",10426,49.07,8.8
"Germany","BadenWurttemberg","Denkendorf",10588,48.69,9.32
"Germany","NorthRhineWestphalia","Nordkirchen",9781,51.730000000000004,7.53
"Germany","Brandenburg","Luckau",10471,51.85,13.72
"Germany","Saarland","Nohfelden",10475,49.59,7.15
"Germany","LowerSaxony","Kirchlinteln",10464,52.95,9.31
"Germany","Bavaria","MaxhutteHaidhof",10460,49.21,12.09
"Germany","Hesse","Morlenbach",10568,49.6,8.73
"Germany","RheinlandPalatinate","HerxheimBeiLandau",10424,49.146944,8.22
"Germany","NorthRhineWestphalia","Weeze",10419,51.64,6.2
"Germany","LowerSaxony","Salzhemmendorf",9217,52.07,9.61
"Germany","LowerSaxony","BadNenndorf",10401,52.34,9.370000000000001
"Germany","BadenWurttemberg","Korb",10399,48.84,9.36
"Germany","BadenWurttemberg","Gottmadingen",10250,47.74,8.78
"Germany","BadenWurttemberg","Oftersheim",11878,49.370000000000005,8.59
"Germany","Brandenburg","Zeuthen",10377,52.370000000000005,13.620000000000001
"Germany","BadenWurttemberg","Blumberg",9975,47.84,8.53
"Germany","SaxonyAnhalt","Wolmirstedt",10369,52.25,11.63
"Germany","RheinlandPalatinate","Betzdorf",9967,50.800000000000004,7.86
"Germany","BadenWurttemberg","Riedlingen",10351,48.15,9.48
"Germany","Brandenburg","Schorfheide",10342,52.95,13.620000000000001
"Germany","BadenWurttemberg","Moglingen",10342,48.89,9.13
"Germany","Hesse","Schauenburg",10325,51.28,9.3
"Germany","Hesse","Biebertal",9991,50.63,8.58
"Germany","Hesse","Laubach",10280,50.550000000000004,8.98
"Germany","Saxony","Penig",10276,50.93,12.72
"Germany","LowerSaxony","Hambuhren",10228,52.63,9.98
"Germany","LowerSaxony","Friedland",10250,51.42,9.93
"Germany","BadenWurttemberg","Engen",10250,47.85,8.76
"Germany","NorthRhineWestphalia","Selfkant",10249,51.02,5.97
"Germany","LowerSaxony","Hilter",10322,52.15,8.14
"Germany","Hesse","Birkenau",9933,49.57,8.700000000000001
"Germany","SchleswigHolstein","Budelsdorf",10244,54.29,9.66
"Germany","Saarland","Kirkel",10223,49.28,7.21
"Germany","Bavaria","Kummersbruck",9855,49.42,11.870000000000001
"Germany","Bavaria","Erlenbach",10208,49.81,9.15
"Germany","Hesse","Nauheim",10189,50.370000000000005,8.74
"Germany","Saxony","Lossnitz",10184,50.620000000000005,12.71
"Germany","Saxony","Weinbohla",10165,51.17,13.57
"Germany","NorthRhineWestphalia","Rodinghausen",10164,52.25,8.48
"Germany","BadenWurttemberg","Mengen",10155,48.050000000000004,9.33
"Germany","LowerSaxony","Wangerland",9285,53.65,7.94
"Germany","Bavaria","FeldkirchenWesterham",10142,47.9,11.85
"Germany","Hesse","Schlitz",9631,50.67,9.56
"Germany","LowerSaxony","Wendeburg",10127,52.33,10.4
"Germany","Hesse","Hunfelden",10121,50.300000000000004,8.16
"Germany","Hesse","Hunstetten",10117,50.230000000000004,8.18
"Germany","Bavaria","Bogen",10111,48.9,12.69
"Germany","Hesse","Lollar",10143,50.65,8.700000000000001
"Germany","NorthRhineWestphalia","Altenberge",10646,52.050000000000004,7.47
"Germany","BadenWurttemberg","Heubach",10105,48.79,9.93
"Germany","Saxony","OttendorfOkrilla",10094,51.18,13.83
"Germany","Bavaria","Altusried",10091,47.81,10.21
"Germany","Bavaria","Veitshochheim",10088,49.83,9.88
"Germany","Hesse","Mucke",10076,50.620000000000005,9.03
"Germany","BadenWurttemberg","Rutesheim",10493,48.81,8.950000000000001
"Germany","Bavaria","Cadolzburg",10071,49.46,10.86
"Germany","Bavaria","Zwiesel",9407,49.02,13.23
"Germany","BadenWurttemberg","Sussen",10065,48.69,9.75
"Germany","Bavaria","Prien",10355,47.870000000000005,12.34
"Germany","BadenWurttemberg","Wildberg",10048,48.64,8.75
"Germany","BadenWurttemberg","WeilStuttgart",10037,48.63,9.06
"Germany","Bavaria","Diessen",10326,47.95,11.1
"Germany","LowerSaxony","Giesen",10025,52.2,9.9
"Germany","BadenWurttemberg","Steinen",9790,47.65,7.75
"Germany","Bavaria","Ainring",10020,47.82,12.950000000000001
"Germany","Brandenburg","Kyritz",10274,52.95,12.39
"Germany","Hesse","BadOrb",9631,50.22,9.35
"Germany","Bavaria","Herrsching",10400,48.,11.18
"Germany","RheinlandPalatinate","BobenheimRoxheim",9878,49.59,8.34
"Germany","LowerSaxony","Adendorf",9988,53.29,10.450000000000001
"Germany","Bavaria","Wunsiedel",9986,50.04,12.01
"Germany","Bavaria","Simbach",9979,48.28,13.02
"Germany","Hesse","Steinbach",9978,50.17,8.56
"Germany","Bavaria","Diedorf",9995,48.35,10.77
"Germany","Brandenburg","Kolkwitz",9965,51.75,14.25
"Germany","Hesse","Rudesheim",9773,49.99,7.91
"Germany","Bavaria","Rosstal",9953,49.4,10.88
"Germany","Bavaria","Goldbach",9952,50.,9.18
"Germany","Bavaria","Oberstdorf",9638,47.410000000000004,10.28
"Germany","LowerSaxony","Furstenau",9934,52.52,7.72
"Germany","BadenWurttemberg","Herbolzheim",9933,48.22,7.78
"Germany","BadenWurttemberg","Aulendorf",9988,47.95,9.63
"Germany","Hesse","Hochst",9883,49.81,8.99
"Germany","NorthRhineWestphalia","Merzenich",9881,50.8331,6.53306
"Germany","Brandenburg","Glienicke",9879,52.63,13.33
"Germany","BadenWurttemberg","Schonaich",9901,48.660000000000004,9.06
"Germany","LowerSaxony","Obernkirchen",9302,52.27,9.13
"Germany","Bavaria","Rehau",9872,50.25,12.040000000000001
"Germany","BadenWurttemberg","Aichtal",10124,48.63,9.23
"Germany","BadenWurttemberg","KonigsbachStein",9859,48.97,8.620000000000001
"Germany","Brandenburg","Vetschau",8307,51.78,14.07
"Germany","SchleswigHolstein","Kappeln",8712,54.67,9.92
"Germany","NorthRhineWestphalia","Kranenburg",10648,51.78,6.0200000000000005
"Germany","Brandenburg","Schwielowsee",9840,52.33,12.950000000000001
"Germany","Bavaria","Kaufering",9838,48.08,10.88
"Germany","SaxonyAnhalt","Sulzetal",9814,52.,11.5297
"Germany","Bavaria","Stephanskirchen",9800,47.86,12.18
"Germany","Hesse","Wolfersheim",9798,50.4,8.82
"Germany","LowerSaxony","Emsburen",10093,52.4,7.3
"Germany","SchleswigHolstein","Oldenburg",9786,54.300000000000004,10.88
"Germany","LowerSaxony","Bleckede",9467,53.300000000000004,10.72
"Germany","Hesse","Linsengericht",9877,50.17,9.22
"Germany","BadenWurttemberg","Kirchzarten",9784,47.97,7.94
"Germany","Brandenburg","DoberlugKirchhain",8746,51.620000000000005,13.57
"Germany","Bavaria","Geisenfeld",9748,48.68,11.620000000000001
"Germany","NorthRhineWestphalia","Augustdorf",9747,51.910000000000004,8.73
"Germany","SchleswigHolstein","Altenholz",9880,54.410000000000004,10.120000000000001
"Germany","Brandenburg","Rangsdorf",10498,52.28,13.43
"Germany","Hesse","Runkel",9561,50.410000000000004,8.16
"Germany","Saxony","Brandis",9357,51.33,12.6
"Germany","BadenWurttemberg","Appenweier",9722,48.550000000000004,7.8
"Germany","LowerSaxony","Neuenhaus",9708,52.5,6.966667
"Germany","SchleswigHolstein","Barmstedt",9704,53.79,9.76
"Germany","SaxonyAnhalt","Elsteraue",9696,51.075,12.2181
"Germany","LowerSaxony","Ostercappeln",9631,52.36,8.23
"Germany","RheinlandPalatinate","Eisenberg",9692,49.56,8.06
"Germany","RheinlandPalatinate","HohrGrenzhausen",9674,50.44,7.66
"Germany","LowerSaxony","Hohenhameln",9154,52.27,10.07
"Germany","LowerSaxony","Luchow",9214,52.97,11.15
"Germany","Brandenburg","Premnitz",9655,52.54,12.35
"Germany","Brandenburg","Wildau",9642,52.316667,13.633333
"Germany","LowerSaxony","Twist",9641,52.6167,7.03333
"Germany","BadenWurttemberg","Weilheim",9634,48.620000000000005,9.53
"Germany","BadenWurttemberg","Kongen",9632,48.68,9.36
"Germany","BadenWurttemberg","Pluderhausen",9252,48.800000000000004,9.6
"Germany","BadenWurttemberg","Plankstadt",9607,49.4,8.59
"Germany","BadenWurttemberg","KarlsdorfNeuthard",10042,49.13,8.53
"Germany","Saarland","Wallerfangen",9603,49.33,6.72
"Germany","SaxonyAnhalt","Tangermuende",9583,52.550000000000004,11.950000000000001
"Germany","Bavaria","Miltenberg",9428,49.71,9.26
"Germany","Hesse","Egelsbach",9570,49.97,8.66
"Germany","BadenWurttemberg","OberhausenRheinhausen",9463,49.27,8.5
"Germany","BadenWurttemberg","WeingartenKarlsruhe",9556,49.06,8.52
"Germany","Bavaria","Lenggries",9553,47.68,11.58
"Germany","BadenWurttemberg","Neuenstadt",9584,49.24,9.33
"Germany","SaxonyAnhalt","Sandersdorf",9552,51.63,12.27
"Germany","LowerSaxony","Gleichen",8894,51.47,10.05
"Germany","LowerSaxony","Gnarrenburg",9535,53.38,9.
"Germany","NorthRhineWestphalia","Altenbeken",9534,51.77,8.93
"Germany","SaxonyAnhalt","Hohenmolsen",9530,51.15,12.08
"Germany","Hesse","Sinntal",8961,50.29,9.64
"Germany","NorthRhineWestphalia","Nordwalde",9388,52.08,7.48
"Germany","Hesse","Gernsheim",9509,49.75,8.48
"Germany","Saarland","Nalbach",9501,49.38,6.78
"Germany","NorthRhineWestphalia","Borgentreich",9501,51.57,9.24
"Germany","BadenWurttemberg","Pliezhausen",9501,48.550000000000004,9.22
"Germany","NorthRhineWestphalia","Everswinkel",9499,51.93,7.8500000000000005
"Germany","Hesse","BadKonig",9687,49.74,9.01
"Germany","BadenWurttemberg","Hirschberg",9582,49.51,8.66
"Germany","BadenWurttemberg","BadLiebenzell",9298,48.77,8.73
"Germany","LowerSaxony","Worpswede",9469,53.22,8.93
"Germany","BadenWurttemberg","Furtwangen",9157,48.050000000000004,8.2
"Germany","LowerSaxony","Elze",9463,52.13,9.73
"Germany","SchleswigHolstein","Wahlstedt",9459,53.95,10.21
"Germany","LowerSaxony","Dorverden",9454,52.85,9.23
"Germany","Hesse","Ehringshausen",9448,50.6,8.38
"Germany","Brandenburg","Storkow",9427,52.25,13.93
"Germany","Bavaria","Tutzing",9845,47.92,11.27
"Germany","Bavaria","Hochberg",9425,49.78,9.88
"Germany","Thuringia","Meuselwitz",9410,51.050000000000004,12.3
"Germany","NorthRhineWestphalia","Tecklenburg",9408,52.22,7.82
"Germany","Bavaria","Burgau",9407,48.43,10.4
"Germany","LowerSaxony","Steinfeld",9407,52.6,8.22
"Germany","SaxonyAnhalt","Teutschenthal",9397,51.45,11.8
"Germany","LowerSaxony","Sande",8904,53.5,8.
"Germany","Bavaria","Kirchseeon",9395,48.07,11.9
"Germany","Bavaria","Volkach",8721,49.870000000000005,10.23
"Germany","MecklenburgWesternPomerania","Teterow",9387,53.77,12.57
"Germany","BadenWurttemberg","Neuried",9286,48.47,7.8
"Germany","BadenWurttemberg","Schwaikheim",9381,48.88,9.35
"Germany","NorthRhineWestphalia","Waldfeucht",9375,51.07,5.98
"Germany","NorthRhineWestphalia","Breckerfeld",9004,51.27,7.47
"Germany","Bavaria","Toging",9362,48.25,12.57
"Germany","Bavaria","Helmbrechts",9355,50.24,11.69
"Germany","LowerSaxony","Werlte",10163,52.85,7.68
"Germany","Saxony","Kirchberg",9336,50.620000000000005,12.530000000000001
"Germany","Hesse","Wehrheim",9328,50.300000000000004,8.57
"Germany","LowerSaxony","Dissen",9539,52.120000000000005,8.2
"Germany","BadenWurttemberg","Bisingen",9319,48.32,8.92
"Germany","Saxony","Hainichen",9314,50.97,13.11
"Germany","Hesse","Wetter",9311,50.9,8.71
"Germany","BadenWurttemberg","Gaufelden",9151,48.550000000000004,8.82
"Germany","Hesse","Weilmunster",9303,50.44,8.36
"Germany","LowerSaxony","Elsfleth",9303,53.24,8.46
"Germany","Bavaria","FurthImWald",9300,49.31,12.84
"Germany","RheinlandPalatinate","BadEms",9229,50.34,7.7
"Germany","LowerSaxony","Liebenburg",7976,52.02,10.44
"Germany","Bavaria","Tirschenreuth",8899,49.89,12.33
"Germany","NorthRhineWestphalia","SchiederSchwalenberg",9271,51.92,9.15
"Germany","BadenWurttemberg","Dettingen",9271,48.54,9.35
"Germany","Hesse","AlsbachHahnlein",9203,49.74,8.6
"Germany","SaxonyAnhalt","Barleben",9267,52.2,11.63
"Germany","Bavaria","HohenkirchenSiegertsbrunn",9265,48.02,11.73
"Germany","Brandenburg","Trebbin",9265,52.22,13.200000000000001
"Germany","Bavaria","Heilsbronn",9263,49.33,10.8
"Germany","Saxony","Falkenstein",9258,50.480000000000004,12.370000000000001
"Germany","NorthRhineWestphalia","Eslohe",9256,51.25,8.17
"Germany","Brandenburg","Elsterwerda",9249,51.47,13.51
"Germany","Saarland","Nonnweiler",9243,49.620000000000005,6.95
"Germany","LowerSaxony","BadLaer",9242,52.1,8.08
"Germany","LowerSaxony","Goldenstedt",9742,52.78,8.43
